"id","lat","lon","place","name","country"
6968827,46.049865,14.5068921,"city","Ljubljana","slovenia"
26447783,46.1459606,14.4143736,NA,"Hidroelektrarna Medvode","slovenia"
26860833,46.5706413,16.1658172,"village","Banovci","slovenia"
27607896,41.1816302,29.0752339,NA,"Rumeli Kavağı","slovenia"
27609492,41.0408106,28.9448547,NA,"Ayvansaray","slovenia"
27610949,41.0466641,28.940673,NA,"Sütlüce","slovenia"
27611391,41.2338389,29.1161596,NA,"Rumeli Burnu","slovenia"
27611418,41.1217127,29.071195,NA,"Yeniköy Şehir Hatları İskelesi","slovenia"
27761409,42.379007,27.723415,"locality","нос Агалина","slovenia"
27768156,42.3067591,27.7943236,NA,"Маслен нос","slovenia"
27771719,42.459643,27.629365,"locality","нос Акин","slovenia"
27776260,42.1942901,27.8418259,NA,"нос Арапя","slovenia"
27777915,42.7013893,27.9007088,"locality","нос Емине","slovenia"
27802461,40.0430167,26.1752383,NA,"Mehmetcik Burnu","slovenia"
27805508,40.0530088,26.1662104,NA,"Tekke Burnu","slovenia"
27812511,40.2394043,26.2769369,NA,"Ari Burnu","slovenia"
28844011,45.7752438,14.2117877,"town","Postojna","slovenia"
29098903,45.5289394,13.5675658,"town","Piran","slovenia"
29098904,45.5398936,13.65939,"town","Izola","slovenia"
29098951,46.2405482,14.3551346,"town","Kranj","slovenia"
29524465,46.6624644,16.1655256,"town","Murska Sobota","slovenia"
29897685,46.0397311,14.486146,"suburb","Vič","slovenia"
29897687,46.0719565,14.4842032,"suburb","Šiška","slovenia"
29897688,46.0811396,14.4752006,"suburb","Dravlje","slovenia"
29897689,46.0715227,14.509137,"suburb","Bežigrad","slovenia"
29897690,46.0572825,14.5367559,"suburb","Moste","slovenia"
29995888,46.2719017,15.3927735,"village","Dramlje","slovenia"
29995889,46.2695464,15.3872204,"village","Laze pri Dramljah","slovenia"
30162721,46.485132,13.7843957,"town","Kranjska Gora","slovenia"
30163872,46.4681042,13.9470999,"village","Dovje","slovenia"
30483320,46.2309234,15.2659932,"town","Celje","slovenia"
30761266,45.7566637,14.0599027,"village","Razdrto","slovenia"
30761275,45.8885557,13.9048561,"town","Ajdovščina","slovenia"
30839841,46.2257358,14.6118936,"town","Kamnik","slovenia"
30894269,46.2906413,15.3088458,"village","Vojnik","slovenia"
30894276,46.3373063,15.4224967,"town","Slovenske Konjice","slovenia"
31395371,46.1302879,14.556192,"village","Trzin","slovenia"
34956200,46.7083655,15.7690617,"town","Mureck","slovenia"
35526498,46.4197508,15.871799,"town","Ptuj","slovenia"
36231591,46.5426372,15.6393015,"suburb","Tabor","slovenia"
36231592,46.5541162,15.6218494,"suburb","Studenci","slovenia"
36231593,46.5496928,15.6695008,"suburb","Pobrežje","slovenia"
36433234,46.5440357,15.620671,"suburb","Borova vas","slovenia"
36433242,46.5333478,15.6703044,"suburb","Tezno","slovenia"
36667529,46.555628,15.64477,"city","Maribor","slovenia"
39284620,46.2777149,15.5585442,"village","Lovnik","slovenia"
39284817,46.3897771,15.57035,"town","Slovenska Bistrica","slovenia"
40081668,46.2455466,15.5751142,"village","Podplat","slovenia"
43378737,46.4673016,15.670235,"village","Hotinja vas","slovenia"
43492274,46.4712106,15.6668287,"village","Orehova vas","slovenia"
44417153,46.5229898,13.7140785,NA,"Peč - Ofen - Monte Forno","slovenia"
44729636,46.3636679,14.3095397,"town","Tržič","slovenia"
44825777,46.380841,13.7519234,"hamlet","Trenta","slovenia"
44826837,46.3385467,13.5525933,"town","Bovec","slovenia"
44870243,45.9580549,13.6474706,"town","Nova Gorica","slovenia"
46932838,46.4533193,15.679145,"village","Rače","slovenia"
48161121,46.2993222,15.5272712,"village","Zbelovo","slovenia"
48161188,46.3148409,15.4794417,"village","Žiče","slovenia"
48684090,46.3872054,15.6299649,"village","Leskovec","slovenia"
48684096,46.3733275,15.6137756,"village","Črešnjevec","slovenia"
53385278,45.9051384,15.5947076,"town","Brežice","slovenia"
53391624,46.3396344,14.963627,"town","Mozirje","slovenia"
54813264,46.2723743,13.9538827,"village","Bohinjska Bistrica","slovenia"
55343992,46.5389346,15.6264341,"suburb","Nova vas","slovenia"
55343995,46.5382359,15.6071533,"suburb","Zgornje Radvanje","slovenia"
55344001,46.5347287,15.6239121,"suburb","Spodnje Radvanje","slovenia"
55344006,46.5405784,15.6842584,"suburb","Brezje","slovenia"
55344009,46.5536476,15.6606997,"suburb","Greenwich","slovenia"
55344012,46.5580726,15.6630396,"suburb","Melje","slovenia"
55344014,46.5635897,15.627925,"suburb","Koroška vrata","slovenia"
55344017,46.4987824,15.6464349,"village","Spodnje Hoče","slovenia"
55344022,46.5155555,15.6357039,"village","Razvanje","slovenia"
55344026,46.5729421,15.6134933,"village","Kamnica","slovenia"
56528263,46.1321467,14.571929,"village","Depala vas","slovenia"
56699213,46.1394296,14.5944553,"town","Domžale","slovenia"
56699534,46.1513496,14.6055232,"village","Vir","slovenia"
56742189,46.1667155,14.3065194,"town","Škofja Loka","slovenia"
56744045,46.1942287,14.2602211,"village","Praprotno","slovenia"
56745686,46.2257913,14.1693085,"town","Železniki","slovenia"
56749775,46.1629579,14.5722166,"town","Mengeš","slovenia"
56750681,46.1731863,14.6101795,"village","Radomlje","slovenia"
56754050,46.1892186,14.4946848,"village","Vodice","slovenia"
56754609,46.1402476,14.413671,"town","Medvode","slovenia"
56756021,46.0589591,14.8277996,"town","Litija","slovenia"
56756941,45.9569101,14.655182,"town","Grosuplje","slovenia"
56758589,46.3592869,15.1150301,"town","Velenje","slovenia"
57074435,45.8007559,15.1703686,"town","Novo mesto","slovenia"
57075060,45.833487,15.221633,"village","Otočec","slovenia"
57076536,45.9081312,15.0095965,"town","Trebnje","slovenia"
57082764,45.9573785,15.4933729,"town","Krško","slovenia"
57091263,46.1489415,15.0439634,"town","Trbovlje","slovenia"
57091407,46.1423452,15.0861936,"town","Hrastnik","slovenia"
57091710,46.1322895,14.9986448,"town","Zagorje ob Savi","slovenia"
57091959,46.0659341,15.1829124,"town","Radeče","slovenia"
57092168,46.0091489,15.3004661,"town","Sevnica","slovenia"
57092468,45.9965075,15.4789534,"town","Brestanica","slovenia"
57092691,46.0208461,15.4765032,"town","Senovo","slovenia"
57093426,45.8432951,15.3384729,"town","Šentjernej","slovenia"
57095348,45.7570315,15.0590523,"village","Dolenjske Toplice","slovenia"
57096731,45.569615,15.1927939,"town","Črnomelj","slovenia"
57098450,45.6517513,15.1835241,"town","Semič","slovenia"
57099014,45.642511,14.8597708,"town","Kočevje","slovenia"
57099335,45.7397126,14.7321075,"town","Ribnica","slovenia"
57101431,45.8316083,14.9295491,"town","Žužemberk","slovenia"
57102020,45.9592409,14.5276014,"village","Ig","slovenia"
57102712,45.9642496,14.2963046,"town","Vrhnika","slovenia"
57103061,45.9177494,14.2299429,"town","Logatec","slovenia"
59263721,46.4402664,15.3955469,"village","Lukanja","slovenia"
59264257,46.4249462,15.4913097,"hamlet","Rep","slovenia"
59488018,46.2788319,15.3828229,"village","Svetelka","slovenia"
59647308,46.4759968,15.6544362,"village","Slivnica","slovenia"
59647316,46.4633078,15.6517733,"village","Radizel","slovenia"
59659098,46.1799188,14.6304162,"village","Rova","slovenia"
59708795,45.5258235,13.6114321,"village","Strunjan / Strugnano","slovenia"
59708796,45.5146361,13.5893209,"town","Portorož / Portorose","slovenia"
59768205,46.3492724,15.570806,"village","Križni vrh","slovenia"
59768206,46.3475694,15.5932758,"village","Laporje","slovenia"
59768207,46.3723008,15.5661762,"village","Cigonca","slovenia"
59771683,45.914467,15.6223302,"village","Bukošek","slovenia"
59771685,45.9877006,15.69604,"village","Stara vas-Bizeljsko","slovenia"
59771686,46.0144647,15.6933384,"village","Bizeljsko","slovenia"
59771687,46.0571033,15.6618232,"village","Bistrica ob Sotli","slovenia"
59771688,46.0800585,15.630307,"village","Dekmanca","slovenia"
59771689,46.0749015,15.6408579,"village","Srebrnik","slovenia"
59771690,46.1095008,15.6019179,"hamlet","Prelasko","slovenia"
59771691,46.1207724,15.5980279,"hamlet","Golobinjek ob Sotli","slovenia"
59771692,46.1315964,15.5996439,"village","Imeno","slovenia"
59771693,46.1518082,15.597496,"village","Podčetrtek","slovenia"
59771694,46.1964686,15.5962639,"village","Pristava pri Mestinju","slovenia"
59771695,46.2363538,15.5631675,"village","Mestinje","slovenia"
59771696,46.2702132,15.5554718,"hamlet","Pečica","slovenia"
59771697,46.303326,15.5819018,"village","Zgornje Poljčane","slovenia"
59771698,46.3139295,15.5783963,"village","Poljčane","slovenia"
59771699,46.326921,15.5727432,"village","Spodnja Brežnica","slovenia"
59936834,46.0122469,14.5732342,"village","Orle","slovenia"
59936835,46.0174834,14.6233388,"village","Podlpoglav","slovenia"
59936836,45.9999455,14.6456146,"village","Veliki Lipoglav","slovenia"
59936837,45.9934396,14.6441703,"village","Mali Lipoglav","slovenia"
59936838,45.9918117,14.6248957,"hamlet","Repče","slovenia"
59937546,46.020101,14.678889,"village","Javor","slovenia"
60059409,47.1108503,14.3691582,NA,"Neumarkter Sattel","slovenia"
60389246,45.7208206,14.0393917,"village","Senožeče","slovenia"
60389249,45.6825252,13.9689688,"town","Divača","slovenia"
60389250,45.6078373,13.9350373,"town","Kozina","slovenia"
60486287,45.9731279,14.420791,"village","Podpeč","slovenia"
60486459,45.9545762,14.3011471,"village","Verd","slovenia"
60486461,45.9194745,14.3637139,"village","Borovnica","slovenia"
60486597,45.9870208,14.3993537,"village","Notranje Gorice","slovenia"
60486599,46.0029121,14.4145492,"village","Vnanje Gorice","slovenia"
60486600,46.0245241,14.4175238,"village","Brezovica pri Ljubljani","slovenia"
60486601,46.0187941,14.3837236,"village","Dragomer","slovenia"
60486602,46.0086084,14.3598891,"village","Log pri Brezovici","slovenia"
60506375,46.3561609,14.2923236,"village","Bistrica pri Tržiču","slovenia"
60511460,46.471893,13.9155013,"village","Belca","slovenia"
60678156,45.9753883,14.2829904,"village","Stara Vrhnika","slovenia"
60693365,45.1444423,14.2237365,NA,"Brestova","slovenia"
60884521,46.1192286,14.8371793,"village","Vače","slovenia"
60884935,46.1300096,14.8000651,"hamlet","Zgornja Gora","slovenia"
60884954,46.1320089,14.8038664,"hamlet","Dolina","slovenia"
60886947,46.1322686,14.8023787,"farm","kuhnca","slovenia"
60920871,46.0462657,14.5110883,"locality","Šance","slovenia"
60952963,45.9054237,13.6760431,"village","Volčja Draga","slovenia"
60952964,45.9060546,13.6992399,"village","Vogrsko","slovenia"
60952965,45.8978858,13.6646504,"village","Bukovica","slovenia"
60952966,45.894339,13.6089235,"village","Miren","slovenia"
60952967,45.8519505,13.5829369,"village","Opatje selo","slovenia"
60952968,45.8413359,13.6084123,"village","Hudi Log","slovenia"
60953018,45.8609171,13.604386,"village","Lokvica","slovenia"
60953123,45.8900122,13.6695716,"village","Renče","slovenia"
60953124,45.8851672,13.6425919,"village","Merljaki","slovenia"
60953125,45.8820786,13.6190459,"hamlet","Vrtoče","slovenia"
60953126,45.8951703,13.6437741,"village","Bilje","slovenia"
62847787,46.1497506,14.6502883,"village","Krtina","slovenia"
63580972,39.9369009,23.9289012,NA,"Ακρ. Δρέπανο","slovenia"
63582841,40.195704,23.8024961,NA,"Ακρ. Ξιφάρας","slovenia"
63586436,40.2372186,23.7483537,NA,"Ακρ. Ρίτσος","slovenia"
63594062,40.0960514,23.7729029,NA,"Ακρ. Ν. Μαρμαράς","slovenia"
63594569,40.1907941,23.6858691,NA,"Ακρ. Κάστρο","slovenia"
63597431,40.1069383,23.9973394,NA,"Ακρ. Ρηγάς","slovenia"
63597587,40.1426301,23.7323621,NA,"Ακρ. Ελιά","slovenia"
63599693,40.0527453,24.0077902,NA,"Ακρ. Σικιάς","slovenia"
63601238,39.9708538,24.0005012,NA,"Ακρ. Καραμπογιά","slovenia"
63601357,39.9481633,23.9920717,NA,"Ακρ. Ψευδόκαβος","slovenia"
64000223,46.4435773,15.1983507,"village","Mislinja","slovenia"
64001817,46.509144,15.0790677,"town","Slovenj Gradec","slovenia"
64002482,46.5897059,15.0234517,"town","Dravograd","slovenia"
64825410,38.7590878,22.8597954,NA,"Άγιος Κωνσταντίνος","slovenia"
64981377,46.5035849,15.211234,"village","Kope","slovenia"
64991491,46.6158777,15.2014159,"village","Zgornja Vižinga","slovenia"
66502768,45.9831085,13.5870828,"village","San Floriano del Collio / Števerjan","slovenia"
66503054,45.7165795,13.8100642,"village","Col","slovenia"
73018447,46.1477113,14.6722329,"village","Škocjan","slovenia"
73075218,37.9378191,21.1489917,NA,"Κυλλήνη","slovenia"
73257645,46.1425834,14.6738728,"village","Studenec pri Krtini","slovenia"
73512936,46.1347675,14.6793672,"hamlet","Zalog pod Sveto Trojico","slovenia"
73524591,46.1367884,14.6850338,"hamlet","Goričica pri Moravčah","slovenia"
73528917,46.1340355,14.6852442,"hamlet","Kokošnje","slovenia"
78465911,46.1910272,14.3767815,"hamlet","Meja","slovenia"
79756461,46.1384558,14.6368031,"hamlet","Gorjuša","slovenia"
79760082,46.1447557,14.6656947,"village","Brezje pri Dobu","slovenia"
83450062,46.2185626,15.3950697,"town","Šentjur","slovenia"
87198774,45.4602334,15.2537407,"village","Vinica","slovenia"
87198782,45.5220105,15.1787783,"village","Dragatuš","slovenia"
87223905,45.9426493,15.1446786,"village","Mokronog","slovenia"
87279180,45.8343735,14.2559599,"village","Planina","slovenia"
87279639,45.8130947,14.3192052,"town","Rakek","slovenia"
87279980,45.7960031,14.3603861,"town","Cerknica","slovenia"
88220066,46.4841234,13.8387267,"village","Gozd Martuljek","slovenia"
88220819,46.4609536,13.9394245,"village","Mojstrana","slovenia"
88222100,46.4346368,14.0573298,"town","Jesenice","slovenia"
89237561,46.4161348,13.61,"hamlet","Strmec na Predelu","slovenia"
89318662,42.9743241,17.1739692,NA,"Passenger ferry to Korčula","slovenia"
91297994,46.1966774,14.3320295,"village","Žabnica","slovenia"
91534024,46.375739,15.4351303,"village","Malahorna","slovenia"
91555010,46.1510617,14.6259829,"village","Dob","slovenia"
91737550,45.972742,13.649443,"village","Solkan","slovenia"
91738061,45.9809853,13.6966458,"village","Ravnica","slovenia"
91738443,45.9664622,13.7554752,"hamlet","Rijavci","slovenia"
91738444,45.972467,13.7439927,"village","Trnovo","slovenia"
91794205,45.487754,13.6564774,"village","Korte","slovenia"
92735247,45.9453726,13.8799182,"village","Predmeja","slovenia"
92735410,45.9263045,13.90911,"village","Otlica","slovenia"
92770795,45.8812811,14.0019801,"village","Col","slovenia"
92770938,45.8990874,13.9607545,"hamlet","Gozd","slovenia"
92770940,45.8720457,14.0230491,"hamlet","Višnje","slovenia"
92770942,45.8650223,14.0590633,"village","Podkraj","slovenia"
92771589,45.8961218,14.19298,"village","Kalce","slovenia"
94174470,46.159574,14.178599,"village","Javorje","slovenia"
95011976,46.1218562,14.1865268,"village","Poljane nad Škofjo Loko","slovenia"
95011980,46.1343365,14.1792134,"hamlet","Volča","slovenia"
95011984,46.1459243,14.1839275,"hamlet","Podobeno","slovenia"
95011985,46.1564327,14.1748825,"hamlet","Dolenčice","slovenia"
95011988,46.1603247,14.1739247,"hamlet","Murave","slovenia"
95011991,46.1674013,14.1854679,"village","Četena Ravan","slovenia"
95011994,46.174697,14.1875055,"hamlet","Zapreval","slovenia"
95011996,46.1844781,14.2224899,"hamlet","Spodjna Luša","slovenia"
95011999,46.1270511,14.2074901,"hamlet","Visoko pri poljanah","slovenia"
95012002,46.1325243,14.2353797,"hamlet","Log nad Škofjo loko","slovenia"
95012008,46.1360144,14.246574,"hamlet","Gabrk","slovenia"
95012011,46.1618561,14.311505,"village","Puštal","slovenia"
95012017,46.1611492,14.328238,"hamlet","Hosta","slovenia"
95012026,46.156005,14.3365865,"village","Pungert","slovenia"
95012038,46.1536745,14.3446215,"village","Gosteče","slovenia"
95012042,46.1473964,14.3562925,"village","Draga","slovenia"
95012050,46.1418393,14.3736529,"village","Sora","slovenia"
95012053,46.1417066,14.3864132,"village","Rakovnik","slovenia"
95012059,46.1417364,14.3961682,"village","Goričane","slovenia"
95012065,46.1370414,14.4000587,"village","Vaše","slovenia"
95012070,46.156928,14.3783432,"village","Gorenja vas - Reteče","slovenia"
95012076,46.1584009,14.3689787,"village","Reteče","slovenia"
95012080,46.1662369,14.3541723,"village","Godešič","slovenia"
95012087,46.1234918,14.4371189,"village","Medno","slovenia"
95053731,46.0215084,14.6124045,"village","Sadinja vas","slovenia"
95053827,46.029409,14.6200226,"village","Češnjica","slovenia"
95053877,46.0321293,14.6307102,"hamlet","Zagradišče","slovenia"
95054543,46.0376007,14.6495365,"village","Besnica","slovenia"
95054546,46.0339438,14.6866956,"hamlet","Zgornja Besnica","slovenia"
95054547,46.0160079,14.6975591,"hamlet","Ravno brdo","slovenia"
95055112,46.0048547,14.7347682,"hamlet","Mali Vrh pri Prežganju","slovenia"
95055113,45.9930235,14.6661002,"hamlet","Pance","slovenia"
95055115,46.0014036,14.6576426,"village","Selo pri Pancah","slovenia"
95772933,46.707876,16.1983913,"village","Sebeborci","slovenia"
95777651,46.7043348,16.1550852,"village","Puconci","slovenia"
95920483,46.6769963,15.9913176,"town","Gornja Radgona","slovenia"
95924594,46.3435762,15.1708895,"village","Vinska Gora","slovenia"
96019041,46.4241147,15.7881006,"village","Kungota pri Ptuju","slovenia"
96027615,46.5433374,15.5925529,"suburb","Pekre","slovenia"
96027858,46.5553241,15.5819064,"village","Limbuš","slovenia"
96028058,46.5386688,15.5139415,"town","Ruše","slovenia"
96534219,46.6408144,16.0406849,"village","Radenci","slovenia"
96570491,46.4660675,15.7153952,"village","Dravski Dvor","slovenia"
96591043,46.4073475,16.1475336,"town","Ormož","slovenia"
96959453,46.3769729,15.0458514,"town","Šoštanj","slovenia"
98330148,43.2219154,28.0086896,NA,"Нос Свети Георги","slovenia"
98338035,43.3993157,28.2225192,NA,"нос Тузлата","slovenia"
98338358,43.3601141,28.465334,NA,"Нос Калиакра","slovenia"
98339171,43.3278351,28.0686004,NA,"нос Екрене","slovenia"
98832550,46.3871131,15.106313,"village","Škale","slovenia"
98840738,46.3998952,15.0462387,"village","Lajše","slovenia"
99371812,46.2612876,14.3890085,"village","Britof","slovenia"
99372293,46.2655928,14.3855234,"village","Predoslje","slovenia"
99871778,46.1578173,14.395844,"hamlet","Jeprca","slovenia"
99871844,46.1567769,14.4108626,"village","Zbilje","slovenia"
100237774,46.4013506,15.0213924,"village","Topolšica","slovenia"
100278866,46.3446044,15.0088231,"village","Gorenje","slovenia"
100280862,46.317632,15.0215596,"village","Letuš","slovenia"
102805024,46.6857999,16.2216892,"village","Moravske Toplice","slovenia"
106010765,46.3351752,15.2264908,"village","Dobrna","slovenia"
106022500,46.2791422,15.0754039,"town","Polzela","slovenia"
107544292,46.1357719,14.510431,"village","Rašica","slovenia"
107544296,46.1224768,14.5027709,"village","Spodnje Gameljne","slovenia"
107544300,46.1263471,14.5009952,"village","Srednje Gameljne","slovenia"
107544303,46.1276557,14.490869,"village","Zgornje Gameljne","slovenia"
108106198,46.1506004,14.4818911,"village","Skaručna","slovenia"
108111715,46.1472724,14.4875502,"hamlet","Vojsko","slovenia"
108116685,46.1618857,14.4954167,"village","Polje pri Vodicah","slovenia"
108122161,46.170537,14.4804122,"village","Repnje","slovenia"
108123850,46.1791814,14.466993,"village","Zapoge","slovenia"
108125468,46.1755457,14.4661474,"hamlet","Dornice","slovenia"
108129863,46.1736041,14.446569,"village","Hraše","slovenia"
108131235,46.1702125,14.4337463,"village","Valburga","slovenia"
108133289,46.1640594,14.4342229,"village","Smlednik","slovenia"
108134098,46.1251551,14.442831,"village","Vikrče","slovenia"
108134230,46.1328493,14.4369603,"village","Spodnje Pirniče","slovenia"
108135204,46.1384098,14.455822,"village","Zavrh pod Šmarno goro","slovenia"
108135613,46.1442945,14.4199625,"village","Verje","slovenia"
108182245,46.1416436,14.4265114,"village","Zgornje Pirniče","slovenia"
110289654,46.1590205,14.6103442,"village","Količevo","slovenia"
110289699,46.1645866,14.6233546,"village","Turnše","slovenia"
110489271,46.340402,14.3350545,"village","Gozd","slovenia"
113375452,46.3462344,15.104478,"village","Kavče","slovenia"
114081102,46.2833107,15.177211,"village","Velika Pirešica","slovenia"
114096053,46.3547438,15.0913479,"village","Podkraj pri Velenju","slovenia"
115351408,46.3581392,15.019517,"village","Skorno","slovenia"
122489606,46.329884,15.0333868,"village","Šmartno ob Paki","slovenia"
130223456,45.9576465,14.5145641,"hamlet","Staje","slovenia"
130223464,45.9504559,14.516109,"hamlet","Kot","slovenia"
130223468,45.9679757,14.4917339,"village","Brest","slovenia"
130223470,45.9636899,14.4812829,"village","Tomišelj","slovenia"
130223494,45.9710424,14.514726,"village","Iška Loka","slovenia"
130223495,45.9519777,14.4901881,"village","Vrbljene","slovenia"
130223536,45.9435032,14.4892446,"village","Strahomer","slovenia"
130289713,45.9403673,14.5111894,"village","Iška vas","slovenia"
130290525,45.920023,14.4951619,"village","Gornji Ig","slovenia"
130290996,45.9217776,14.5082883,"village","Iška","slovenia"
130295018,45.9385259,14.4403532,"hamlet","Gorenja Brezovica","slovenia"
130296698,45.9464789,14.4304505,"hamlet","Dolenja Brezovica","slovenia"
130297869,45.9560666,14.4470303,"hamlet","Planinca","slovenia"
130298127,45.956039,14.4174708,"village","Preserje","slovenia"
130300037,45.9558898,14.4087933,"village","Kamnik pod Krimom","slovenia"
130300600,45.9559495,14.3921164,"village","Prevalje pod Krimom","slovenia"
130301446,45.9543682,14.3842887,"village","Goričica pod Krimom","slovenia"
130302437,45.9407613,14.3697146,"village","Pako","slovenia"
130304067,45.9376052,14.3656886,"village","Breg pri Borovnici","slovenia"
130304232,45.9285838,14.3531493,"village","Dol pri Borovnici","slovenia"
130306157,45.9231395,14.3527875,"village","Laze pri Borovnici","slovenia"
130306282,45.9477322,14.3332795,"hamlet","Bistra","slovenia"
130339819,45.970511,14.4340198,"village","Jezero","slovenia"
130339961,45.9920085,14.4612531,"hamlet","Lipe","slovenia"
130342113,46.0082306,14.4997625,"village","Črna vas","slovenia"
134576363,45.8909445,15.6023429,"village","Čatež ob Savi","slovenia"
141505508,46.2727024,14.3163742,"village","Naklo","slovenia"
141506941,46.271677,14.3505252,"village","Mlaka","slovenia"
144602313,46.5672001,15.5776829,"village","Bresternica","slovenia"
144602320,46.5656883,15.5671982,"village","Jelovec","slovenia"
144696454,46.6248885,16.3165187,"village","Turnišče","slovenia"
144701289,46.6187912,15.5655659,"village","Gaj nad Mariborom","slovenia"
144702206,46.6388648,15.6141264,"village","Zgornja Kungota","slovenia"
144702887,46.6370654,15.618682,"village","Plintovec","slovenia"
144703153,46.5960691,15.6648927,"village","Dolnja Počehova","slovenia"
144704058,46.6089489,15.675468,"village","Pesnica pri Mariboru","slovenia"
144704650,46.6371628,15.6686687,"hamlet","Jelenče","slovenia"
144705039,46.6640574,15.6596191,"village","Štrihovec","slovenia"
144705702,46.646598,15.6694172,"hamlet","Kaniža","slovenia"
144706917,46.6804044,15.6528907,"village","Šentilj v Slovenskih goricah","slovenia"
144706988,46.6740628,15.633,"hamlet","Kresnica","slovenia"
145639995,46.115208,14.4644241,"suburb","Brod","slovenia"
146416762,46.6357303,16.295732,"village","Renkovci","slovenia"
146896037,46.0387471,14.4288652,"village","Podsmreka","slovenia"
146896238,46.0447185,14.4292098,"hamlet","Komanija","slovenia"
146898657,46.0477389,14.4271756,"village","Draževnik","slovenia"
146898728,46.0544284,14.4156743,"village","Dobrova","slovenia"
146899372,46.0606369,14.4217974,"village","Stranska vas","slovenia"
146900423,46.0619151,14.4117861,"village","Šujica","slovenia"
146902114,46.0709967,14.4095803,"village","Gabrje","slovenia"
146902770,46.0709103,14.3857822,"village","Hruševo","slovenia"
146902790,46.0730685,14.3764228,"hamlet","Hrastenice","slovenia"
146946621,46.0845727,14.3747597,"hamlet","Osredek pri Dobrovi","slovenia"
147702294,46.1329513,14.8039355,"village","Gora pri Pečah","slovenia"
147703483,46.0634467,14.3458142,"village","Dvor pri Polhovem Gradcu","slovenia"
147703875,46.0595507,14.3422032,"village","Dolenja vas pri Polhovem Gradcu","slovenia"
147703928,46.0649361,14.3619382,"village","Babna Gora","slovenia"
147731669,46.0736433,14.3634973,"hamlet","Log pri Polhovem Gradcu","slovenia"
147732437,46.0603249,14.3270112,"village","Srednja vas pri Polhovem Gradcu","slovenia"
147732709,46.065144,14.3171168,"hamlet","Pristava pri Polhovem Gradcu","slovenia"
147732990,46.0653617,14.3128622,"village","Polhov Gradec","slovenia"
147734150,46.0583595,14.3022061,"village","Briše pri Polhovem Gradcu","slovenia"
148109262,46.061277,14.291869,"village","Praproče","slovenia"
148405864,46.0577429,14.1959405,"hamlet","Dolge Njive","slovenia"
148406153,46.0624063,14.1964297,"village","Lučine","slovenia"
148409638,46.0545895,14.2115596,"village","Planina nad Horjulom","slovenia"
148410362,46.0431366,14.2358947,"village","Butajnova","slovenia"
148578614,46.0344332,14.2932115,"village","Koreno nad Horjulom","slovenia"
148582211,46.0636899,14.3205739,"village","Podreber","slovenia"
148592077,46.0691647,14.3524013,"hamlet","Belica","slovenia"
148596880,46.0933466,14.3700136,"village","Topol pri Medvodah","slovenia"
148597614,46.0790349,14.3594723,"hamlet","Belo","slovenia"
148603437,46.0837798,14.4187642,"hamlet","Toško Čelo","slovenia"
154670287,46.2207502,14.3340903,"village","Zgornje Bitnje","slovenia"
154670993,46.2148362,14.3366721,"village","Srednje Bitnje","slovenia"
154671671,46.2071742,14.3332389,"village","Spodnje Bitnje","slovenia"
154674021,46.195293,14.3238833,"village","Dorfarje","slovenia"
155071409,46.6515066,16.3443719,"village","Dobrovnik","slovenia"
156398442,46.5869392,16.1060693,"village","Bučečovci","slovenia"
156399778,46.6276507,16.2470014,"village","Gančani","slovenia"
156400501,46.6255631,16.2282262,"village","Lipovci","slovenia"
160235617,46.5760851,15.8312836,"town","Lenart","slovenia"
175672470,46.3031435,13.4820073,"village","Žaga","slovenia"
175672568,46.2916428,13.4985997,"village","Srpenica","slovenia"
175730569,46.2464811,13.5788321,"village","Kobarid","slovenia"
175751400,46.2800444,13.5526699,"village","Trnovo ob Soči","slovenia"
178197001,46.31963,13.5487269,"village","Čezsoča","slovenia"
201303867,46.4053275,13.6031935,"village","Log pod Mangartom","slovenia"
201699237,46.2752821,14.5266819,"village","Ambrož pod Krvavcem","slovenia"
201718260,46.2848485,14.532975,"hamlet","Planina Jezerca","slovenia"
201718265,46.2940108,14.53561,"hamlet","Kriška planina","slovenia"
202755905,46.228536,14.4857047,"village","Spodnji Brnik","slovenia"
202966937,46.2897513,15.0515866,"village","Preserje","slovenia"
203397917,46.5622048,16.4536925,"town","Lendava/Lendva","slovenia"
206172647,46.2773905,13.8869253,"village","Jezero","slovenia"
206174434,46.3235105,13.9200278,"locality","Planina Praprotnica","slovenia"
206174677,46.3131153,13.934224,"locality","Planina Zajamniki","slovenia"
206174720,46.3194842,13.9479105,"locality","Planina Konjska Dolina","slovenia"
206174724,46.3114549,13.9451622,"locality","Planina na Pečeh","slovenia"
206174731,46.3285145,13.9591481,"locality","Planina Jelje","slovenia"
206182467,46.2265194,15.7002159,"town","Rogatec","slovenia"
206182471,46.2346699,15.6379692,"town","Rogaška Slatina","slovenia"
208592566,45.8133113,14.4808369,"country","Slovenija","slovenia"
208843100,46.2794201,13.8288274,"hamlet","Ukanc","slovenia"
208843106,46.2766292,13.8888239,"village","Ribčev Laz","slovenia"
208843112,46.2879339,13.8936598,"village","Stara Fužina","slovenia"
208843117,46.2677202,13.9027282,"hamlet","Laški Rovt","slovenia"
208843122,46.2680435,13.9117216,"village","Polje","slovenia"
208843126,46.2718958,13.9176343,"village","Kamnje","slovenia"
208843130,46.2650683,13.9182281,"hamlet","Žlan","slovenia"
208843133,46.2742953,13.9238681,"village","Savica","slovenia"
208843140,46.2759565,13.9278521,"village","Brod","slovenia"
208843147,46.2838358,13.95929,"village","Bitnje","slovenia"
208843152,46.2810877,13.9703396,"hamlet","Lepence","slovenia"
208843156,46.2859103,13.9797093,"village","Log v Bohinju","slovenia"
208843161,46.292875,14.0073234,"village","Nomenj","slovenia"
208843165,46.2947004,13.9153237,"village","Studor v Bohinju","slovenia"
208843169,46.2968864,13.9235325,"village","Srednja vas v Bohinju","slovenia"
208843176,46.2953919,13.944523,"village","Bohinjska Češnjica","slovenia"
208843181,46.2967526,13.9625912,"village","Jereka","slovenia"
208843186,46.3063185,13.9833114,"village","Koprivnik v Bohinju","slovenia"
208843193,46.3138028,14.012317,"village","Gorjuše","slovenia"
208843197,46.3133852,13.9596057,"hamlet","Podjelje","slovenia"
208843203,46.3319835,13.9742852,"hamlet","Goreljek","slovenia"
208843209,46.383996,14.0789044,"village","Spodnje Gorje","slovenia"
208843212,46.4146704,14.0807673,"village","Kočna","slovenia"
208843219,46.412041,14.0952928,"village","Blejska Dobrava","slovenia"
212613431,40.3730134,22.8878327,NA,"Cape Epanomi","slovenia"
240029377,46.7048031,15.7272624,"village","Weitersfeld an der Mur","slovenia"
240029776,46.7114864,15.6573303,"village","Oberschwarza","slovenia"
240035732,46.6379116,14.9553097,"village","Pfarrdorf","slovenia"
240037737,46.8419575,16.0111205,"village","Kalch","slovenia"
240041269,46.6761147,15.5486214,"locality","Sulztal an der Weinstraße","slovenia"
240042282,46.7286175,15.8530527,"village","Fluttendorf","slovenia"
240048085,46.5599627,14.8248309,"locality","Schattenberg","slovenia"
240050175,46.6001268,14.8629395,"village","Weißenstein","slovenia"
240051889,46.7119867,15.6717928,"village","Unterschwarza","slovenia"
240051976,46.7751476,15.9809946,"village","Gruisla","slovenia"
240053020,46.7294505,15.8366984,"village","Diepersdorf","slovenia"
240058799,46.6575702,15.0931717,"locality","Laaken","slovenia"
240059669,46.6807542,16.0299986,"village","Sicheldorf","slovenia"
240062231,46.5472513,14.8170276,"village","Sankt Georgen/Šentjur","slovenia"
240062332,46.6167,14.9833333,"village","Rabenstein","slovenia"
240076410,46.6617279,15.1480763,"hamlet","Sankt Bartlmä","slovenia"
240076532,46.6608888,15.3826164,"locality","Hardegg","slovenia"
240080799,46.8423007,16.0404813,"village","Bonisdorf","slovenia"
240087635,46.6892437,16.0310717,"hamlet","Dedenitz","slovenia"
240090435,46.4900414,14.6965935,"hamlet","Koprein Sonnseite/Koprivna","slovenia"
240092934,46.7116262,15.6960829,"village","Lichendorf","slovenia"
240093037,46.7080012,16.0236966,"village","Zelting","slovenia"
240095168,46.6869458,15.5700415,"village","Ratsch an der Weinstraße","slovenia"
240098180,46.5768308,14.8399361,"locality","Grablach","slovenia"
240099156,46.7439038,15.9824414,"village","Pölten","slovenia"
240100911,46.7146494,15.7909756,"village","Misselsdorf","slovenia"
240120550,46.55128,14.8220165,"hamlet","Lokowitzen","slovenia"
240121032,46.5082405,14.8098721,"locality","Rischberg","slovenia"
240123716,46.7165186,15.9943864,"village","Goritz bei Radkersburg","slovenia"
240126024,46.6909697,15.6259079,"locality","Obegg","slovenia"
240126324,46.6220639,14.9265347,"hamlet","Berg ob Leifling","slovenia"
240128331,46.8627693,16.0791626,"village","Tauka","slovenia"
241274865,40.5066705,22.9067376,NA,"Karavakia - Thessaloniki Waterbus. Nei Epivates Stop","slovenia"
243585481,46.2360533,14.6138391,"suburb","Mekinje","slovenia"
244520201,46.1785356,14.5950545,"village","Homec","slovenia"
244520280,46.1673999,14.5950165,"village","Preserje","slovenia"
248789241,46.0489805,14.5608136,"suburb","Fužine","slovenia"
248790276,46.0259882,14.5339317,"suburb","Rudnik","slovenia"
248840254,46.0730431,14.451123,"suburb","Podutik","slovenia"
250264396,46.3571253,14.2757265,"village","Brezje pri Tržiču","slovenia"
250283037,46.6127428,15.1670835,"village","Spodnja Muta","slovenia"
250655270,46.6093522,15.1655099,"village","Muta","slovenia"
252504277,46.2388481,14.4849605,"village","Zgornji Brnik","slovenia"
252504561,46.2623724,14.4939493,"hamlet","Grad","slovenia"
252505448,46.2328195,14.539795,"hamlet","Cerkljanska Dobrava","slovenia"
252505492,46.2132014,14.5313311,"village","Klanec","slovenia"
252505511,46.208421,14.5290971,"village","Potok pri Komendi","slovenia"
252505681,46.2054037,14.5394407,"village","Komenda","slovenia"
252505787,46.1940882,14.5482379,"village","Moste pri Komendi","slovenia"
252505792,46.2114417,14.5167334,"village","Nasovče","slovenia"
252506551,46.2104758,14.5221245,"village","Breg pri Komendi","slovenia"
253814864,43.1959876,27.9185304,NA,"4","slovenia"
253814916,43.1961168,27.9152259,NA,"Кей 5","slovenia"
253815014,43.1953655,27.9139602,NA,"6","slovenia"
253815026,43.1942777,27.9147269,NA,"7","slovenia"
253815228,43.1934918,27.914175,NA,"8","slovenia"
253815622,43.1943045,27.9126738,NA,"9","slovenia"
253815892,43.1955464,27.9117817,NA,"10","slovenia"
253816109,43.196402,27.9105697,NA,"Кей 11","slovenia"
253816173,43.1946007,27.9082324,NA,"13","slovenia"
253921567,44.6019176,14.9702024,NA,"Prizna","slovenia"
254970161,46.3999223,15.5334542,"village","Visole","slovenia"
254970564,46.4354511,15.4764661,"hamlet","Planina pod Šumikom","slovenia"
255916193,46.4447561,15.5386982,"village","Šmartno na Pohorju","slovenia"
255916194,46.4398843,15.5891472,"hamlet","Kočno pri Polskavi","slovenia"
255916195,46.4261122,15.608699,"village","Zgornja Polskava","slovenia"
255917647,46.4770695,15.4982882,"village","Bojtina","slovenia"
255925467,46.4223889,15.5623209,"village","Spodnje Prebukovje","slovenia"
255925468,46.4057959,15.5730183,"village","Devina","slovenia"
260052040,46.4601291,15.3019613,"hamlet","Zgornja Komisija","slovenia"
260057299,46.4166404,15.3716721,"village","Padeški vrh","slovenia"
260057301,46.4028695,15.3719408,"village","Boharina","slovenia"
260057303,46.3893673,15.3736874,"village","Loška Gora","slovenia"
260243158,46.1266908,15.582906,"hamlet","Sela","slovenia"
260243160,46.1288696,15.5589401,"village","Virštanj","slovenia"
260243162,46.1009943,15.5142017,"village","Lesično","slovenia"
260243164,46.0991693,15.5253889,"village","Pilštanj","slovenia"
260243166,46.0754494,15.5609167,"town","Kozje","slovenia"
260243168,46.0399432,15.5897627,"village","Podsreda","slovenia"
260243170,46.0475963,15.6326624,"village","Trebče","slovenia"
262241702,46.4191181,14.5270267,"locality","Seebergsattel","slovenia"
263359995,45.8910867,14.4405105,"village","Rakitna","slovenia"
263359996,45.8155828,14.3796888,"village","Begunje pri Cerknici","slovenia"
263475392,46.175633,13.7083409,"village","Volče","slovenia"
264999178,46.1551493,15.2331521,"town","Laško","slovenia"
264999909,46.1650196,15.1908833,"village","Spodnja Rečica","slovenia"
265043845,46.5530086,15.5501442,"village","Bistrica ob Dravi","slovenia"
265043846,46.5580332,15.5670391,"village","Laznica","slovenia"
265767372,46.0719571,14.4730282,"locality","Koseze","slovenia"
266844801,46.3079796,13.9239618,"locality","Planina na Šeh","slovenia"
266844848,46.3254142,13.9079155,"locality","Planina Uskovnica","slovenia"
267145958,46.6480619,15.8425205,"village","Sveta Ana","slovenia"
267145959,46.5962908,15.8231392,"village","Spodnji Žerjavci","slovenia"
267145960,46.5970374,15.8367644,"locality","Zgornji Žerjavci","slovenia"
267145962,46.6251968,15.8500174,"hamlet","Žice","slovenia"
267164050,46.6102339,15.8068242,"hamlet","Spodnji Gasteraj","slovenia"
267769304,46.6948106,15.8099827,"village","Lokavec","slovenia"
268436671,46.5187046,16.1967404,"town","Ljutomer","slovenia"
269360785,46.4617927,16.1540274,"village","Ivanjkovci","slovenia"
269362486,46.4786565,16.1280582,"village","Lahonci","slovenia"
269660584,46.5434597,16.2179093,"village","Cven","slovenia"
270354121,46.5684981,16.0241336,"village","Sveti Jurij ob Ščavnici","slovenia"
270387124,45.7401912,14.190781,"village","Matenja vas","slovenia"
270472102,45.7297015,14.1850989,"village","Prestranek","slovenia"
270476097,45.7494222,14.1791217,"hamlet","Grobišče","slovenia"
270500977,46.5828075,16.1627322,"village","Veržej","slovenia"
270516248,45.7210047,14.1799891,"village","Koče","slovenia"
270516252,45.7120689,14.1785373,"village","Slavina","slovenia"
270516264,45.7045034,14.1901276,"village","Selce","slovenia"
270516266,45.6907865,14.1965287,"village","Petelinje","slovenia"
270516271,45.6825561,14.1956401,"town","Pivka","slovenia"
270530449,45.6626875,14.2173571,"village","Parje","slovenia"
270530450,45.6556777,14.2222585,"village","Drskovče","slovenia"
270530451,45.6422871,14.2239582,"village","Zagorje","slovenia"
270530452,45.625144,14.2455522,"village","Knežak","slovenia"
270530453,45.6034478,14.2369484,"village","Šembije","slovenia"
270565346,46.0463037,15.7057715,"village","Orešje na Bizeljskem","slovenia"
270565347,46.0443596,15.6943361,"village","Bizeljska vas","slovenia"
270565349,46.0224641,15.7031583,"village","Drenovec pri Bukovju","slovenia"
270599440,46.4828579,16.0781484,"village","Sveti Tomaž","slovenia"
271155643,46.478404,16.0031812,"village","Polenšak","slovenia"
271624278,45.5153671,13.571838,"village","Bernardin / San Bernardino","slovenia"
273431187,46.2630984,15.0916274,"village","Ločica ob Savinji","slovenia"
273431974,46.2560229,15.1170473,"village","Šempeter v Savinjski dolini","slovenia"
274989765,46.2302851,15.1594057,"village","Griže","slovenia"
275397769,45.7838104,14.1979288,"village","Veliki Otok","slovenia"
276064780,46.303492,14.2111542,"village","Brezovica","slovenia"
276064782,46.2914427,14.204547,"village","Kropa","slovenia"
276064784,46.2704607,14.2071367,"hamlet","Jamnik","slovenia"
276064786,46.2887463,14.2285849,"village","Češnjica pri Kropi","slovenia"
276064788,46.3035216,14.2181494,"hamlet","Lipnica","slovenia"
276068109,46.2591405,14.2091523,"village","Podblica","slovenia"
276068110,46.2596006,14.2245052,"hamlet","Nemilje","slovenia"
276068111,46.2437717,14.1945904,"village","Lajše","slovenia"
276068113,46.2524002,14.1755775,"village","Dražgoše","slovenia"
276068114,46.2469548,14.1664163,"village","Rudno","slovenia"
276068115,46.232895,14.1813607,"hamlet","Kališe","slovenia"
276068116,46.2241634,14.203498,"village","Selca","slovenia"
276068117,46.225581,14.1774475,"village","Studeno","slovenia"
276068118,46.2116466,14.1647128,"hamlet","Smoleva","slovenia"
276068119,46.2334675,14.1244691,"village","Podlonk","slovenia"
276071105,46.271593,13.9798237,"village","Nemški Rovt","slovenia"
276071106,46.2592661,13.9633377,"hamlet","Ravne v Bohinju","slovenia"
276071107,46.3282499,14.0576725,"hamlet","Obrne","slovenia"
276071108,46.3467307,14.0604781,"village","Bohinjska Bela","slovenia"
276071109,46.3404804,14.0717129,"hamlet","Kupljenik","slovenia"
276071110,46.3524367,14.109666,"village","Selo pri Bledu","slovenia"
276071111,46.3494202,14.122774,"village","Ribno","slovenia"
276071112,46.3485633,14.1360842,"village","Bodešče","slovenia"
276399311,46.6146425,15.4611385,"village","Sveti Duh na Ostrem vrhu","slovenia"
276399426,46.5509471,15.4927613,"village","Selnica ob Dravi","slovenia"
276620053,46.0440697,14.8431229,"town","Šmartno pri Litiji","slovenia"
276741915,46.1025116,14.7867831,"village","Kresnice","slovenia"
276742214,46.0712545,14.8157403,"village","Podšentjur","slovenia"
276742215,46.0773214,14.825682,"village","Zgornji Log","slovenia"
276742216,46.0841624,14.8241622,"hamlet","Pogonik","slovenia"
276742218,46.0926998,14.8277577,"village","Spodnji Hotič","slovenia"
276742219,46.0913864,14.8135092,"village","Zgornji Hotič","slovenia"
277003324,45.9912658,14.6723358,"village","Dole pri Polici","slovenia"
277003325,45.9961522,14.6960411,"hamlet","Dolenja vas pri Polici","slovenia"
277003327,45.999683,14.694028,"hamlet","Gorenja vas pri Polici","slovenia"
277003328,46.0003078,14.701265,"hamlet","Mali Konec","slovenia"
277003330,45.9977066,14.7029261,"hamlet","Troščine","slovenia"
277003355,45.9948483,14.7143193,"hamlet","Kožljevec","slovenia"
277003381,46.0114577,14.737896,"hamlet","Veliko Trebeljevo","slovenia"
277003386,46.0169542,14.7395058,"village","Malo Trebeljevo","slovenia"
277003387,46.0272617,14.7642482,"hamlet","Gozd-Reka","slovenia"
277003423,46.0372226,14.7552181,"hamlet","Račica","slovenia"
277003431,46.0477734,14.7637136,"village","Velika Štanga","slovenia"
277003434,46.0231063,14.7246147,"village","Prežganje","slovenia"
277003437,46.0639421,14.7800396,"hamlet","Širmanski Hrib","slovenia"
277003439,46.0643164,14.8019697,"village","Veliki Vrh pri Litiji","slovenia"
277003445,46.057784,14.8492879,"hamlet","Zagorica","slovenia"
277003448,46.0831317,14.7824231,"village","Kresniški Vrh","slovenia"
277003451,46.0614938,14.7558844,"village","Mala Štanga","slovenia"
277003453,46.0730784,14.7576976,"village","Golišče","slovenia"
277003456,46.0905465,14.7611974,"village","Kresniške Poljane","slovenia"
277003459,46.099503,14.7699601,"village","Ribče","slovenia"
277003461,46.0839104,14.7375691,"village","Jevnica","slovenia"
277003464,46.0761451,14.731144,"village","Zgornja Jevnica","slovenia"
277003469,46.0910265,14.733694,"village","Senožeti","slovenia"
277003472,46.043747,14.6816958,"village","Vnajnarje","slovenia"
277003475,46.0446482,14.6953379,"hamlet","Gabrje pri Jančah","slovenia"
277003477,46.0326553,14.7164304,"village","Volavlje","slovenia"
277003480,46.0463209,14.7230465,"hamlet","Dolgo Brdo","slovenia"
277003482,46.051866,14.7202956,"hamlet","Tuji Grm","slovenia"
277003484,46.0508038,14.7280388,"hamlet","Koške Poljane","slovenia"
277003487,46.0529943,14.7125015,"hamlet","Janče","slovenia"
277003490,46.0885204,14.6920894,"village","Laze pri Dolskem","slovenia"
277003493,46.0941727,14.6776211,"village","Dolsko","slovenia"
277003558,46.0711951,14.6382878,"village","Podgrad","slovenia"
277162338,41.0413096,29.0077797,NA,"Beşiktaş","slovenia"
277447220,41.0399916,29.0057053,NA,"Beşiktaş","slovenia"
277505864,46.2421836,15.0796029,"village","Kaplja vas","slovenia"
277505866,46.2406298,15.0923248,"village","Dolenja vas","slovenia"
277505867,46.2358001,15.0922149,"village","Prebold","slovenia"
277871930,45.6339025,13.9085368,"hamlet","Grozzana / Gročana","slovenia"
278223371,46.5626765,15.549885,"village","Spodnji Slemen","slovenia"
278223416,46.5407335,15.4329432,"village","Činžat","slovenia"
278223626,46.6401343,15.4227152,"village","Gradišče na Kozjaku","slovenia"
278224100,46.6462757,15.5671115,"village","Jurij","slovenia"
278782946,45.7928687,15.1255295,"hamlet","Srebrniče","slovenia"
279372024,46.2527361,15.1603835,"town","Žalec","slovenia"
279372028,46.2450395,15.1545246,"village","Vrbje","slovenia"
280063037,45.9791417,13.5975567,"hamlet","Scedina / Ščedno","slovenia"
280301015,46.3490595,13.8965607,"locality","Planina Konjščica","slovenia"
280336435,46.3329258,14.1602148,"village","Lancovo","slovenia"
280336473,46.3250508,14.1716654,"village","Zgornja Lipnica","slovenia"
280336475,46.3206449,14.1709876,"village","Spodnja Lipnica","slovenia"
280336477,46.3170704,14.1945346,"village","Kamna Gorica","slovenia"
280336548,46.3324457,14.1478337,"hamlet","Brda","slovenia"
280336550,46.329966,14.1470797,"hamlet","Vošče","slovenia"
280336552,46.3253883,14.1855866,"hamlet","Ravnica","slovenia"
280339374,46.3463399,14.1733724,"town","Radovljica","slovenia"
280340075,46.3618008,14.1544381,"village","Lesce","slovenia"
280341775,46.3242239,14.20883,"hamlet","Globoko","slovenia"
280341776,46.3099938,14.2120838,"village","Zgornja Dobrava","slovenia"
280341782,46.3158652,14.2126514,"hamlet","Mišače","slovenia"
280341783,46.305727,14.2205197,"village","Srednja Dobrava","slovenia"
280342550,46.301517,14.2297364,"hamlet","Spodnja Dobrava","slovenia"
280933933,46.0128415,14.6165045,"village","Šentpavel","slovenia"
282025624,45.879211,15.5786282,"village","Mrzlava vas","slovenia"
282025629,45.866602,15.5873847,"village","Sobenja vas","slovenia"
282025630,45.8720879,15.5924832,"village","Žejno","slovenia"
282475672,46.3545333,13.5878454,"hamlet","Kukč","slovenia"
282528965,45.9472227,15.5672667,"village","Spodnja Pohanca","slovenia"
282528966,45.929971,15.5736869,"village","Gornji Lenart","slovenia"
282528967,45.95013,15.5571655,"village","Dolenja vas pri Artičah","slovenia"
282528969,45.9491104,15.5477174,"village","Dolenja vas pri Krškem","slovenia"
282528970,45.9482268,15.5224318,"village","Spodnja Libna","slovenia"
282528971,45.9811252,15.4806289,"hamlet","Sotelsko","slovenia"
282528972,46.0266306,15.4619038,"village","Dovško","slovenia"
282528976,46.0503581,15.4481365,"village","Dobrova","slovenia"
282732220,46.0041001,15.6481652,"village","Pišece","slovenia"
282732221,45.9555168,15.6298762,"village","Globoko","slovenia"
282732222,45.9278723,15.5949395,"village","Brezina","slovenia"
282732290,46.0187951,15.6421992,"locality","Brod","slovenia"
282963978,46.5841064,15.390105,"village","Ožbalt","slovenia"
283061729,45.5243608,13.5802393,"village","Fiesa / Fiesso","slovenia"
283207460,46.3769852,14.0552888,"village","Krnica","slovenia"
283633738,46.0327099,15.5024014,"village","Mali Kamen","slovenia"
283633740,46.1211928,15.4924811,"village","Krivica","slovenia"
283633741,46.0356819,15.5254117,"village","Veliki Kamen","slovenia"
283633743,46.1260368,15.4771043,"village","Lopaca","slovenia"
283634098,46.1882107,15.4300653,"village","Gorica pri Slivnici","slovenia"
283634107,46.2125305,15.442461,"village","Grobelno","slovenia"
283634116,46.2289735,15.5202579,"town","Šmarje pri Jelšah","slovenia"
283634936,46.1048096,15.4048587,"village","Planina pri Sevnici","slovenia"
286429317,46.5867306,16.2757771,"village","Odranci","slovenia"
286429863,46.6046999,16.2383649,"village","Beltinci","slovenia"
286571197,45.75565,13.832633,"village","Dutovlje","slovenia"
286571202,45.773982,13.7826634,"village","Pliskovica","slovenia"
286571206,45.8030132,13.713132,"village","Gorjansko","slovenia"
286571767,45.817067,13.7471166,"village","Komen","slovenia"
286571771,45.8150411,13.809846,"village","Kobjeglava","slovenia"
286571799,45.8162001,13.8517677,"village","Kobdilj","slovenia"
286572143,45.762311,13.9075845,"village","Kazlje","slovenia"
286572240,45.7375363,13.9287647,"village","Štorje","slovenia"
286824990,46.5073791,15.6973717,"village","Miklavž na Dravskem polju","slovenia"
286824991,46.4880761,15.7294947,"village","Loka","slovenia"
286824992,46.4672719,15.7677413,"village","Starše","slovenia"
286824994,46.4763202,15.7490961,"village","Rošnja","slovenia"
286824995,46.403767,15.797067,"town","Kidričevo","slovenia"
286824996,46.3541382,15.7605904,"village","Ptujska Gora","slovenia"
286824997,46.3608064,15.7600662,"village","Podlože","slovenia"
286825000,46.2903644,15.7172966,"village","Stoperce","slovenia"
286919251,45.7450791,14.1128263,"hamlet","Sajevče","slovenia"
286946835,45.5851164,14.3200104,"locality","Trnovska bajta","slovenia"
286948251,45.5730827,14.4014801,"hamlet","Sviščaki","slovenia"
286948838,45.6292547,14.3672231,"hamlet","Mašun","slovenia"
286949454,45.622491,14.4612643,"hamlet","Leskova dolina","slovenia"
286951790,45.5674703,14.3737482,"locality","Okroglina","slovenia"
286951794,45.5985255,14.3978157,"locality","Kamrica","slovenia"
287384739,46.469632,14.8502645,"village","Črna na Koroškem","slovenia"
287384926,46.4832268,14.8691473,"village","Žerjav","slovenia"
287385515,46.5195022,14.8521528,"town","Mežica","slovenia"
287387287,46.5446645,14.9622568,"town","Ravne na Koroškem","slovenia"
287388513,46.4891365,14.8282919,"hamlet","Podpeca","slovenia"
287388587,46.4786168,14.7723302,"hamlet","Topla","slovenia"
287389465,46.458399,14.7414312,"hamlet","Koprivna","slovenia"
288466493,46.4154251,15.5020403,"village","Veliko Tinje","slovenia"
288860049,45.992942,15.6681581,"village","Vitna vas","slovenia"
288876171,46.6079079,15.6487593,"village","Spodnja Kungota","slovenia"
288881416,46.6364455,15.3754436,"village","Kapla na Kozjaku","slovenia"
288893433,45.9757831,15.6842935,"village","Dramlja","slovenia"
288997618,46.1828005,13.7328983,"town","Tolmin","slovenia"
289038609,45.7864636,14.0888792,"hamlet","Strane","slovenia"
289160663,46.1120116,14.115187,"village","Hotavlje","slovenia"
289308562,45.5103406,13.9010921,"village","Hrastovlje","slovenia"
289414494,46.3995693,15.0798653,"village","Gaberke","slovenia"
289415063,46.4176195,15.1229523,"village","Graška Gora","slovenia"
290250834,46.3071581,14.277903,"hamlet","Podtabor","slovenia"
290251105,46.301365,14.2752422,"hamlet","Britof","slovenia"
290252741,46.3023278,14.2767437,"village","Podbrezje","slovenia"
290252923,46.2905661,14.2885117,"village","Žeje","slovenia"
290325385,46.3281121,14.2322961,"village","Brezje","slovenia"
290381247,46.0023983,14.0273014,"town","Idrija","slovenia"
290421432,46.5448515,14.9150312,"town","Prevalje","slovenia"
290425667,46.4683947,15.60779,"village","Ranče","slovenia"
290508059,46.5522106,15.4208192,"village","Puščava","slovenia"
290508436,46.5464733,15.3319305,"village","Lehen","slovenia"
290509490,46.5559633,15.3235298,"village","Janževski vrh","slovenia"
290509491,46.5942732,15.2306458,"village","Vuhred","slovenia"
290509493,46.5889858,15.3280675,"village","Podvelka","slovenia"
290510063,46.5350502,15.2678547,"village","Ribnica na Pohorju","slovenia"
290817077,46.6698595,15.6099223,"village","Plač","slovenia"
290817296,46.6659693,15.588086,"village","Svečina","slovenia"
293193495,46.0954733,13.6101937,"hamlet","Lig","slovenia"
293217098,45.9150918,15.6015444,"suburb","Črnc","slovenia"
293221545,45.9465721,15.6898414,"village","Vrhje","slovenia"
293221768,45.896683,15.6586552,"town","Dobova","slovenia"
293741618,45.6493103,13.7639216,NA,"Molo dei Bersaglieri","slovenia"
294176873,46.5463616,15.4497703,"village","Fala","slovenia"
294568059,46.620139,14.9475881,"village","Libeliče","slovenia"
295084768,46.575781,15.8769777,"village","Sveta Trojica","slovenia"
296096416,46.684924,16.1896103,"village","Martjanci","slovenia"
296116554,46.8036921,16.218644,"village","Gornji Petrovci","slovenia"
296313646,46.5409834,16.1505749,"village","Lukavci","slovenia"
296313913,46.5377169,16.1743351,"village","Noršinci pri Ljutomeru","slovenia"
296314264,46.5632435,16.1384021,"village","Križevci pri Ljutomeru","slovenia"
296314362,46.5978688,16.1028419,"village","Vučja vas","slovenia"
297307010,45.660807,13.998903,"village","Naklo","slovenia"
297307143,45.6557679,14.0225346,"village","Škoflje","slovenia"
297307297,45.6615851,14.0218508,"village","Famlje","slovenia"
297307503,45.6608718,13.9289573,"village","Lokev","slovenia"
297856494,45.6273501,13.8982062,"hamlet","Pesek","slovenia"
298142483,46.5657214,15.94197,"village","Cerkvenjak","slovenia"
298143245,46.5196095,15.8869514,"village","Trnovska vas","slovenia"
299743363,45.9651276,13.5583953,"hamlet","Giasbana / Jazbine","slovenia"
300054534,45.9706358,13.5815414,"hamlet","Uclanzi / Klanec","slovenia"
300055490,45.9741851,13.5836234,"hamlet","Bivio / Križišče","slovenia"
302100197,46.4976545,13.7157915,"village","Rateče","slovenia"
302100200,46.4937616,13.756686,"village","Podkoren","slovenia"
302100201,46.4866395,13.8069257,"hamlet","Log","slovenia"
302100202,46.4907429,13.8356885,"hamlet","Srednji Vrh","slovenia"
302100203,46.4488752,14.0133318,"village","Hrušica","slovenia"
302591022,46.2300265,14.2853972,"hamlet","Čepulje","slovenia"
302591191,46.2355168,14.2942189,"hamlet","Javornik","slovenia"
302591245,46.2393222,14.3097371,"hamlet","Pševo","slovenia"
303601998,46.4768757,16.189048,"village","Jeruzalem","slovenia"
303846750,46.5410461,15.3893517,"village","Lovrenc na Pohorju","slovenia"
304056528,46.4327799,15.9149015,"village","Podvinci","slovenia"
304056532,46.4505761,15.9355382,"village","Pacinje","slovenia"
304056535,46.4582377,15.9566193,"hamlet","Mostje","slovenia"
304056543,46.5818545,16.0160604,"hamlet","Čakova","slovenia"
304095175,46.3575728,13.8870914,"locality","Na jezercu","slovenia"
304188480,46.4597934,15.6091611,"village","Kopivnik","slovenia"
305560317,46.3553576,14.7451413,"village","Luče","slovenia"
305560318,46.343396,14.8336545,"town","Ljubno ob Savinji","slovenia"
305560319,46.2960951,14.8057772,"town","Gornji Grad","slovenia"
305560321,46.3197136,14.9470017,"town","Nazarje","slovenia"
307354437,46.3991828,14.6327097,"hamlet","Logarska dolina","slovenia"
307824253,45.955167,14.7421249,"village","Višnja Gora","slovenia"
307970758,46.2195489,14.3830471,"village","Hrastje","slovenia"
308084237,45.953123,15.0898994,"village","Slovenska vas","slovenia"
308084240,45.977225,15.0913523,"town","Šentrupert","slovenia"
308085255,45.9698028,15.0793287,"hamlet","Vesela gora","slovenia"
308085258,45.9793932,15.0799386,"hamlet","Škrljevo","slovenia"
308544089,45.9523919,15.0625477,"village","Mirna","slovenia"
308647667,45.9699646,15.0872937,"hamlet","Brinje","slovenia"
308647670,45.9618242,15.0918287,"village","Rakovnik pri Šentrupertu","slovenia"
308647674,45.961721,15.0793963,"village","Straža","slovenia"
308647681,45.9619755,15.0694593,"village","Trstenik","slovenia"
308961845,46.2777586,15.4041769,"village","Šedina","slovenia"
308961898,46.2863597,15.4016019,"village","Zalog pod Uršulo","slovenia"
308962048,46.2865377,15.4078676,"village","Vodule","slovenia"
308962234,46.286597,15.4227163,"village","Pletovarje","slovenia"
308962408,46.296027,15.4154207,"village","Grušče","slovenia"
308962801,46.2983398,15.4062368,"village","Jazbine","slovenia"
308963046,46.2967552,15.3917398,"village","Straža na Gori","slovenia"
308963075,46.2770467,15.3631498,"village","Marija Dobje","slovenia"
308963742,46.2813179,15.345812,"village","Bovše","slovenia"
308963743,46.2730719,15.3426363,"village","Razgor","slovenia"
308963832,46.2748517,15.3319933,"village","Pristava","slovenia"
308964249,46.2685628,15.361519,"village","Jarmovec","slovenia"
308964413,46.2514128,15.360489,"village","Cerovec","slovenia"
308964414,46.2521251,15.333624,"village","Žepina","slovenia"
308964580,46.2592467,15.3348257,"village","Lipovec pri Škofji vasi","slovenia"
308964583,46.2610863,15.3458978,"village","Glinsko","slovenia"
308964779,46.2461897,15.3844358,"village","Dole","slovenia"
308964831,46.234149,15.3862171,"village","Lokarje","slovenia"
308964908,46.2633251,15.4126933,"village","Razbor","slovenia"
308965003,46.2844024,15.430956,"village","Slatina","slovenia"
308965140,46.2703427,15.4420282,"village","Lutrje","slovenia"
308965310,46.2538462,15.4393674,"village","Ponikva","slovenia"
308965489,46.2604929,15.4573919,"village","Boletina","slovenia"
308965549,46.2496916,15.4186823,"village","Hotunje","slovenia"
308965647,46.2400527,15.3475094,"village","Blagovna","slovenia"
308965977,46.2385321,15.3634931,"village","Goričica","slovenia"
308965978,46.2375822,15.3363706,"village","Proseniško","slovenia"
309824837,45.5316277,13.9160169,"hamlet","Praproče","slovenia"
309828035,45.6547051,14.0871082,"village","Buje","slovenia"
309880540,36.7597308,22.5703443,NA,"Gytheion","slovenia"
309931699,38.2541433,22.0792024,NA,"Αίγιο","slovenia"
311336235,46.5129816,15.7210671,"village","Zgornji Duplek","slovenia"
311336236,46.5223881,15.7053594,"village","Dogoše","slovenia"
311557038,46.5033969,15.7482046,"village","Spodnji Duplek","slovenia"
315120901,45.9858342,14.177928,"village","Rovte","slovenia"
321964969,46.5644724,16.0228404,"village","Jamna","slovenia"
322748118,45.7281173,14.4114099,"village","Gorenje Jezero","slovenia"
324386729,46.3149307,14.1336086,"isolated_dwelling","Goška ravan","slovenia"
325179413,46.5425799,15.5476329,"village","Log","slovenia"
330242775,45.7929853,14.2963741,"locality","Rakov Škocjan","slovenia"
330276435,42.4262683,18.772224,NA,"Vrata od Rijeke","slovenia"
330409466,45.6645486,14.1156807,"village","Gornja Košana","slovenia"
330409566,45.6659148,14.1368745,"village","Neverke","slovenia"
330409880,45.6693619,14.1658431,"village","Kal","slovenia"
333782412,46.5896542,16.0019666,"village","Grabonoš","slovenia"
333782545,46.5933668,15.9819551,"village","Spodnji Ivanjci","slovenia"
333782592,46.6386116,15.9985467,"village","Ptujska Cesta","slovenia"
333994217,45.6144421,13.9072669,"village","Mihele","slovenia"
333994653,45.6146747,13.9113465,"village","Nasirec","slovenia"
333995086,45.6289963,13.9291812,"village","Vrhpolje","slovenia"
335636088,46.607498,16.0429873,"village","Rožički vrh","slovenia"
335636155,46.6129284,16.0445494,"village","Turjanski Vrh","slovenia"
335636877,46.6164212,16.0309898,"village","Kapelski Vrh","slovenia"
335637008,46.6015323,16.025238,"village","Okoslavci","slovenia"
335637510,46.6536892,15.9973683,"village","Črešnjevci","slovenia"
337943036,46.2219659,15.7001119,"village","Hum na Sutli","slovenia"
347549840,46.125859,13.6136524,"hamlet","Clinaz / Klinac","slovenia"
352897024,37.2472246,22.8616041,"hamlet","Παραλία Τυρού","slovenia"
353954252,46.6411743,16.4025582,"village","Bödeháza","slovenia"
353954257,46.6307929,16.4197761,"village","Gáborjánháza","slovenia"
354631619,46.2186532,13.4996863,"locality","Ex-valico Stupizza/Robič","slovenia"
354637572,46.2025319,13.5994564,"village","Livek","slovenia"
354639914,46.1805895,13.6537014,"hamlet","Crai / Kraj","slovenia"
354640206,46.1725007,13.6524741,"hamlet","Clabuzzaro","slovenia"
354643516,46.1599284,13.6483677,"hamlet","Scale","slovenia"
354643719,46.1563887,13.6441742,"hamlet","Rucchin / Zaločilo","slovenia"
354645730,46.2470822,13.5313342,"village","Staro selo","slovenia"
356763229,46.1789999,13.5706582,"village","Cepletischis / Čeplešišče","slovenia"
358171699,46.6089343,15.9376826,"village","Negova","slovenia"
358171705,46.6074414,15.8916042,"village","Benedikt v Slovenskih Goricah","slovenia"
360004379,46.6577223,16.2550977,"village","Ivanci","slovenia"
360012739,46.5703571,16.2946644,"village","Črenšovci","slovenia"
360831646,45.9827542,13.6430198,NA,"Eremo di San Valentino / Ostaline cerkve Sv. Valentina","slovenia"
362789987,45.5007716,13.5865855,NA,"Rt Seča","slovenia"
363274930,46.3156666,13.8126722,"locality","Planina Dedno polje","slovenia"
363329699,46.3256396,13.8511529,"locality","Planina Krstenica","slovenia"
365960985,45.9960115,14.3285897,"village","Drenov grič","slovenia"
365979274,46.1832307,13.6263411,"hamlet","Lase / Laze","slovenia"
365979561,46.1829455,13.6428206,"hamlet","Trinco / Trinko","slovenia"
368158774,45.9753823,14.3194599,"village","Sinja Gorica","slovenia"
368188283,45.9829302,14.3552942,"village","Bevke","slovenia"
368197039,45.9941098,14.2968747,"village","Velika Ligojna","slovenia"
368326532,46.0223241,14.2988997,"village","Horjul","slovenia"
368790342,45.9729086,14.3370243,"village","Blatna Brezovica","slovenia"
369957992,46.4208786,16.1093785,"village","Velika Nedelja","slovenia"
370060206,46.5274109,15.5606096,"hamlet","Zgornji Marin","slovenia"
371810846,45.8871839,13.7025448,"village","Gradišče nad Prvačino","slovenia"
373130139,46.3951789,16.2699751,"village","Središče ob Dravi","slovenia"
375729288,46.0133068,14.1946839,"village","Smrečje","slovenia"
375729779,46.0055301,14.2234476,"village","Podlipa","slovenia"
375731630,45.994175,14.3032439,"hamlet","Mala Ligojna","slovenia"
376321118,46.090875,13.5490408,"hamlet","Oborza / Obuorča","slovenia"
376664654,46.1259585,13.6247231,"hamlet","Ponte Clinaz / Klinški Malin","slovenia"
376669430,46.1153202,13.6049786,"hamlet","Melina","slovenia"
376669645,46.1141778,13.6008073,"isolated_dwelling","Podclanz / Podklanc","slovenia"
376671091,46.1097151,13.5982152,"locality","Salamant / Salamánti","slovenia"
376672611,46.1068291,13.5945674,"hamlet","Bordon / Bordóni","slovenia"
376673001,46.1037346,13.5874005,"hamlet","Ciubiz / Čúbci","slovenia"
376674165,46.0974558,13.5713073,"hamlet","Codromaz / Kodermáci","slovenia"
376675031,46.1027943,13.5759679,"hamlet","Berda / Budaž","slovenia"
377189836,45.5895149,13.8591692,"village","Socerb","slovenia"
379592066,45.6922635,14.7583648,"village","Rakitnica","slovenia"
379593156,45.6488849,14.7550521,"village","Grčarice","slovenia"
379593604,45.6123746,14.7491167,"village","Gotenica","slovenia"
379597095,45.5731134,14.8491226,"village","Novi Lazi","slovenia"
379597766,45.5749221,14.7996781,"village","Kočevska Reka","slovenia"
379627394,45.7710771,14.4261393,"village","Grahovo","slovenia"
379629581,45.763855,14.4545834,"village","Bločice","slovenia"
379646757,45.7639893,14.6883443,"village","Slatnik","slovenia"
379646763,45.7661722,14.6923135,"village","Žlebič","slovenia"
379681952,45.7261579,14.4690218,"village","Lož","slovenia"
379683838,45.7144025,14.4719421,"village","Stari trg pri Ložu","slovenia"
380412879,45.5961032,14.6469252,"town","Čabar","slovenia"
381333665,46.5294009,15.5705767,"hamlet","Markovo","slovenia"
382051551,46.4092615,16.179071,"village","Pušenci","slovenia"
384814490,46.064103,13.5125727,"hamlet","Cras / Kràs","slovenia"
384815234,46.0750896,13.5372919,"hamlet","Cosson / Košóni","slovenia"
384818121,46.0888663,13.5630916,"hamlet","Podresca / Podarskíje","slovenia"
385075543,45.9305288,14.1397406,"village","Hotedršica","slovenia"
385075843,46.0334612,14.0215761,"village","Spodnja Idrija","slovenia"
385075870,45.956899,14.0928113,"village","Godovič","slovenia"
385076856,46.1050252,14.1442726,"village","Gorenja vas","slovenia"
385077699,46.1279639,13.9881168,"town","Cerkno","slovenia"
385253635,46.4152531,16.1984468,"village","Hum pri Ormožu","slovenia"
385253940,46.4032941,16.2084602,"village","Loperšice","slovenia"
385254035,46.3987365,16.2324928,"village","Obrež","slovenia"
385254169,46.3987957,16.2518047,"village","Grabe","slovenia"
386012374,45.9255086,14.0437616,"village","Črni Vrh nad Idrijo","slovenia"
386648204,46.1747788,14.5056908,"village","Bukovica pri Vodicah","slovenia"
386649547,46.1697499,14.5193143,"village","Koseze","slovenia"
387224179,46.3119602,15.2851566,"village","Nova Cerkev","slovenia"
387473521,45.7783322,15.0655961,"village","Rumanja vas","slovenia"
387482821,45.8462534,15.4197752,"town","Kostanjevica na Krki","slovenia"
387637413,45.7604206,14.4692272,"village","Bloška Polica","slovenia"
388479807,46.5899898,15.6779812,"hamlet","Pekel","slovenia"
389944008,46.2690814,15.2907989,"village","Škofja vas","slovenia"
390871986,46.4343635,16.0808089,"village","Sodinci","slovenia"
390872289,46.4374394,16.093426,"village","Senešci","slovenia"
390878309,46.4253716,16.1775853,"village","Pavlovci","slovenia"
390878318,46.4363156,16.171489,"village","Libanja","slovenia"
390878369,46.4512196,16.1647942,"village","Mihalovci","slovenia"
393940156,46.4880716,16.0862804,"village","Koračice","slovenia"
393940227,46.4735324,16.0955501,"village","Hranjigovci","slovenia"
393940402,46.4201884,16.1487652,"village","Dobrava","slovenia"
393940443,46.4363982,16.132629,"village","Lešnica","slovenia"
401882592,46.1223924,14.614836,"village","Ihan","slovenia"
402823087,46.5938523,15.3183323,"village","Brezno","slovenia"
403569727,46.3350875,13.4289592,"locality","Berdo di Sopra","slovenia"
408405141,46.4820144,16.1663279,"village","Cerovec Stanka Vraza","slovenia"
408950424,46.4273624,16.0865376,"village","Senešci","slovenia"
410634769,45.6687897,14.013419,"village","Goriče pri Famljah","slovenia"
412562074,46.2191164,14.5060745,"village","Lahovče","slovenia"
412835296,46.854799,16.1446031,NA,"Felsőszölnök, Szlovénia","slovenia"
413927172,46.8837459,16.2235802,"hamlet","Kétvölgy","slovenia"
413929926,46.882003,16.2666173,"village","Orfalu","slovenia"
414043044,45.9046386,13.9472113,"hamlet","Kovk","slovenia"
414949756,46.4391149,16.2427305,"village","Vitan","slovenia"
414979679,41.0405716,28.9490562,NA,"Hasköy","slovenia"
415389792,45.5782136,14.0319279,"hamlet","Hotična","slovenia"
415907107,46.4565789,16.2545188,"village","Kog","slovenia"
416586908,46.1496915,15.5617033,"village","Olimje","slovenia"
418125803,45.5297499,13.9514932,"village","Podgorje","slovenia"
419340034,46.2588574,15.1554884,"village","Gotovlje","slovenia"
419638178,46.4177885,15.4381759,"village","Cezlak","slovenia"
422477138,46.4580949,16.2148881,"village","Miklavž pri Ormožu","slovenia"
422477440,46.4794541,16.2242382,"village","Hermanci","slovenia"
426694486,45.997415,13.5273675,"village","Dobrovo","slovenia"
426698026,46.4475199,16.2545312,"village","Jastrebci","slovenia"
426698738,46.4368662,16.2571932,"village","Vodranci","slovenia"
426699226,46.4220622,16.2650212,"village","Godeninci","slovenia"
426703467,45.9971102,13.5348208,"village","Biljana","slovenia"
426713608,46.4509717,16.2282573,"village","Zasavci","slovenia"
427011634,46.4761204,13.7830247,"hamlet","Jasna","slovenia"
427688829,46.5978842,15.1657776,"village","Vuzenica","slovenia"
429303005,45.9744226,14.4670991,"village","Podkraj","slovenia"
429937981,46.4377376,16.0782574,"village","Vicanci","slovenia"
429938234,46.4470824,16.0680779,"village","Sejanci","slovenia"
429993059,45.8825674,15.6921989,"village","Ključ Brdovečki","slovenia"
430376604,45.8778029,14.6128115,"village","Turjak","slovenia"
430381833,45.9188643,14.5715716,"village","Želimlje","slovenia"
437038108,42.6408982,18.11177,NA,"Dubrovnik","slovenia"
440628207,45.7980242,13.6050378,"village","Medeazza / Medjevas","slovenia"
441057402,46.2465472,13.4556506,"hamlet","Podbela","slovenia"
441570935,45.8444767,13.6421079,"village","Kostanjevica na Krasu","slovenia"
441570936,45.845607,13.6659106,"isolated_dwelling","Novelo","slovenia"
441570937,45.8456464,13.6788979,"village","Temnica","slovenia"
442020970,46.3955127,15.6590122,"village","Pragersko","slovenia"
442450678,46.2535926,13.4388028,"village","Sedlo","slovenia"
442462670,46.2334967,13.4333816,"village","Logje","slovenia"
443869183,46.4120443,15.6376293,"village","Spodnja Polskava","slovenia"
444528465,46.177169,13.6031775,"hamlet","Topolò","slovenia"
444794024,45.8524201,14.6234522,"village","Rašica","slovenia"
444853661,45.8479558,14.5994279,"village","Knej","slovenia"
444853720,45.8291494,14.5919272,"village","Logarji","slovenia"
444890602,46.5879722,14.9997275,"village","Črneče","slovenia"
444963888,45.7849342,14.513228,"village","Volčje","slovenia"
445030382,45.7730725,14.5068868,"village","Nova vas","slovenia"
445030383,45.7793394,14.503578,"village","Nemška vas na Blokah","slovenia"
445030384,45.7935358,14.5234593,"hamlet","Kramplje","slovenia"
445034953,46.0696806,15.0344036,"village","Podkum","slovenia"
445044784,46.1381755,14.9644066,"town","Kisovec","slovenia"
445044786,46.1535864,14.9307196,"village","Izlake","slovenia"
445044788,46.1795697,14.94375,"village","Čemšenik","slovenia"
445397814,46.0915237,13.5971622,"hamlet","Markiči","slovenia"
445397818,46.0885772,13.5819702,"hamlet","Ukanje","slovenia"
445406779,45.823664,14.5639645,"hamlet","Bane","slovenia"
445406786,45.820388,14.5593166,"hamlet","Naredi","slovenia"
445406789,45.8298927,14.5757339,"village","Zgonče","slovenia"
445406995,45.8029147,14.5559481,"village","Lužarji","slovenia"
445406998,45.7975859,14.5392222,"hamlet","Zakraj","slovenia"
445407002,45.7982826,14.5644322,"hamlet","Brolg","slovenia"
445407004,45.8043256,14.5740872,"village","Podstrmec","slovenia"
445407007,45.8049228,14.5837059,"hamlet","Žaga","slovenia"
445407009,45.8049529,14.5952521,"village","Podžaga","slovenia"
445407021,45.8072043,14.604238,"village","Karlovica","slovenia"
445407023,45.824395,14.5990179,"village","Kaplanovo","slovenia"
445407026,45.8391837,14.5986803,"village","Stope","slovenia"
445411400,45.7669831,14.5103314,"village","Fara","slovenia"
445411414,45.7619709,14.6346442,"village","Sodražica","slovenia"
445411416,45.7584261,14.6485945,"village","Zamostec","slovenia"
445411417,45.7584804,14.686456,"village","Sušje","slovenia"
445411425,45.8324463,14.6383908,"town","Velike Lašče","slovenia"
445411429,45.7975103,14.686456,"village","Velike Poljane","slovenia"
445411435,45.802776,14.6744397,"village","Dolenje Podpoljane","slovenia"
445411438,45.804571,14.6661999,"village","Gorenje Podpoljane","slovenia"
445411439,45.8225181,14.6555569,"village","Gornje Retje","slovenia"
445411442,45.8253784,14.6514379,"village","Dolnje Retje","slovenia"
445411451,45.7602993,14.6756145,"village","Zapotok","slovenia"
445470283,45.9159781,13.6339114,"village","Vrtojba","slovenia"
445848708,46.1414883,15.1164025,"village","Dol pri Hrastniku","slovenia"
445848709,46.1109068,15.0591281,"village","Dobovec","slovenia"
446017968,46.0995065,13.5864756,"hamlet","Britof","slovenia"
446038309,45.947717,13.6352194,"village","Pristava","slovenia"
446096371,45.9385838,14.8042412,"town","Ivančna Gorica","slovenia"
446280187,46.0578438,13.5297037,"hamlet","Senik","slovenia"
446280190,46.0906992,13.5879855,"hamlet","Bajti","slovenia"
446310537,46.129095,14.7585595,"village","Drtija","slovenia"
446310538,46.1548295,14.998599,"village","Kotredež","slovenia"
446310539,46.1574798,14.9854033,"village","Rove","slovenia"
446310540,46.1492035,14.9718391,"village","Zavine","slovenia"
446310541,46.1663162,14.9601522,"village","Ržiše","slovenia"
446310542,46.1807795,14.9706902,"village","Jesenovo","slovenia"
447553868,46.0672538,14.9978863,"hamlet","Rtiče","slovenia"
447553869,46.0649061,14.9821618,"village","Stranski vrh","slovenia"
447553870,46.0694549,14.9603294,"village","Polšnik","slovenia"
447553872,46.080052,14.9645231,"hamlet","Šumnik","slovenia"
447553873,46.0923749,14.9506914,"village","Renke","slovenia"
447553874,46.0886133,14.8918977,"village","Sava","slovenia"
447553877,46.0948921,15.0148309,"village","Šklendrovec","slovenia"
447884170,46.6022169,15.251923,"village","Spodnja Vižinga","slovenia"
448616128,46.1116255,14.990523,"hamlet","Grašica","slovenia"
448616133,46.0847339,15.0051486,"village","Rodež","slovenia"
448616135,46.0978804,14.9724671,"village","Konjšica","slovenia"
449174233,46.5614896,15.0378336,"village","Šentjanž","slovenia"
449384675,46.0856515,13.6337864,"village","Kanal","slovenia"
450618418,46.3035804,13.9332501,"locality","Planina Četeže","slovenia"
451733086,46.1104553,13.6138844,"village","Kostanjevica","slovenia"
451741986,46.1277841,13.648788,"village","Kambreško","slovenia"
452496260,45.612285,14.8913762,"village","Livold","slovenia"
452496613,45.5494786,14.8623655,"village","Morava","slovenia"
452504571,45.5292418,14.6988672,"village","Osilnica","slovenia"
452611231,45.644807,14.5490845,"village","Babno Polje","slovenia"
453170382,46.1434984,14.9865278,"village","Vine","slovenia"
454605064,45.4947047,15.3772785,"village","Jakovci","slovenia"
454617941,46.345512,13.9231507,"locality","Rudno polje","slovenia"
454837919,45.4728622,14.8740083,"village","Vas","slovenia"
454848875,46.3156636,13.9059462,"hamlet","Lom","slovenia"
455695704,46.2867072,15.0403341,"village","Braslovče","slovenia"
457258939,46.0937323,13.5855817,"hamlet","Šeberjak","slovenia"
457259008,46.0964646,13.5919638,"hamlet","Filej","slovenia"
457274128,46.0794152,13.5694242,"hamlet","Zapotok","slovenia"
457277251,46.0844358,13.5791216,"hamlet","Želinje","slovenia"
457280206,46.0823699,13.5451555,"isolated_dwelling","Mišček","slovenia"
459479609,46.4448587,15.4967382,"hamlet","Močnik","slovenia"
459479619,46.4288645,15.5066759,"village","Urh","slovenia"
459527236,46.1071203,14.9878546,"hamlet","Vrtače","slovenia"
459527238,46.0985866,14.983752,"hamlet","Kraje","slovenia"
459821457,46.4149639,15.5121253,"village","Turiška vas na Pohorju","slovenia"
459974432,45.9411986,14.0047561,"village","Zadlog","slovenia"
460382900,45.474961,14.346692,"village","Lisac","slovenia"
460393771,45.5160186,14.3442084,"village","Zabiče","slovenia"
463191834,46.5517407,15.6476662,"suburb","Magdalena","slovenia"
464752010,46.1428672,14.9346406,"village","Šemnik","slovenia"
468347629,46.6005054,15.1054618,"village","Trbonje","slovenia"
468490150,45.5724588,15.2925651,"village","Griblje","slovenia"
469177745,46.0780981,13.5815047,"hamlet","Debenje","slovenia"
469343657,43.5166164,16.2287793,NA,"Seget Donji","slovenia"
469392855,45.819309,13.9372148,"hamlet","Manče","slovenia"
470924359,45.7972852,13.9724055,"village","Podnanos","slovenia"
471056894,46.3860221,16.0459879,"village","Zavrč","slovenia"
471631478,46.3798871,14.4039255,"locality","Planina Javornik","slovenia"
472124895,43.5033284,16.4411918,NA,"17","slovenia"
472168907,46.087162,14.8461193,"hamlet","Konj","slovenia"
472168909,46.0792096,14.8655204,"village","Ponoviče","slovenia"
472184721,46.1363929,14.8623239,"village","Vidrga","slovenia"
472301479,45.9001484,15.6286296,"village","Mostec","slovenia"
472301482,45.9047286,15.6052059,"suburb","Trnje","slovenia"
474620327,46.2440182,15.7271816,"village","Žahenberc","slovenia"
474620334,46.252735,15.7373298,"village","Sv. Jurij","slovenia"
474620342,46.268232,15.7794549,"village","Čermožiše","slovenia"
474620349,46.2493526,15.7164516,"village","Tlake","slovenia"
474620356,46.2561393,15.7221752,"village","Donačka Gora","slovenia"
474620363,46.2741613,15.7378329,"village","Kupčinji Vrh","slovenia"
474620370,46.2754033,15.7932593,"village","Žetale","slovenia"
474620380,46.2854097,15.7951248,"hamlet","Kočice","slovenia"
474620386,46.2849167,15.8076336,"village","Dobrina","slovenia"
474620392,46.2968404,15.848354,"village","Kozminci","slovenia"
474620396,46.2977835,15.8618415,"village","Sedlašek","slovenia"
474620402,46.3085225,15.8601337,"village","Stanošina","slovenia"
474620407,46.3111195,15.8494673,"village","Strajna","slovenia"
474620414,46.3212973,15.8747312,"village","Zakl","slovenia"
474620427,46.2929792,15.7249563,"village","Grdina","slovenia"
474620433,46.3267189,15.8571106,"village","Jablovec","slovenia"
474620436,46.3350483,15.879597,"village","Podlehnik","slovenia"
474620437,46.3343837,15.8668857,"village","Gorca","slovenia"
474842512,46.1836393,13.6594926,NA,"Monte Poclabuz / Na Gradu","slovenia"
474842751,46.1917912,13.6336132,NA,"Monte Nachnoi / Nagnoj","slovenia"
474849191,46.4398203,13.6041711,NA,"Sella Ursic - Čez Stože","slovenia"
474849521,46.4437997,13.6391705,NA,"Forcella della Lavina - Klanška Skrbina","slovenia"
474886747,46.4759027,16.5967702,NA,"Dreiländereck Slowenien-Kroatien-Ungarn","slovenia"
474974186,46.3686375,15.8310074,"village","Barislovci","slovenia"
474984193,46.4930813,15.9932815,"village","Bodkovci","slovenia"
474984194,46.485111,16.0157084,"village","Bratislavci","slovenia"
474984196,46.4175417,15.9373279,"village","Borovci","slovenia"
474984197,46.4151844,15.9760236,"village","Cunkovci","slovenia"
474984198,46.4926875,15.8759455,"village","Destrnik","slovenia"
474984204,46.3450357,15.7821374,"village","Doklece","slovenia"
474984205,46.346862,15.8024723,"village","Bolečka vas","slovenia"
474984206,46.3415481,15.8100593,"village","Dolena","slovenia"
474984215,46.2784528,15.9121081,"village","Brezova Gora","slovenia"
474984217,46.2093638,15.7585615,"village","Dobovec pri Rogatcu","slovenia"
474987064,46.4353478,15.9548875,"village","Dornava","slovenia"
474987065,46.4607039,15.9645222,"village","Kukava","slovenia"
474987066,46.4685782,15.98063,"village","Hlaponci","slovenia"
474987067,46.4857865,15.9695319,"village","Juršinci","slovenia"
474987069,46.3356203,15.7932392,"village","Janški Vrh","slovenia"
474987135,46.2630605,15.8563085,"village","Gornji Macelj","slovenia"
474995331,46.4675318,16.0037789,"village","Polenci","slovenia"
474995336,46.4800536,15.9808376,"village","Rotman","slovenia"
474995340,46.4730342,16.0472903,"village","Savci","slovenia"
474995344,46.4901002,16.0362374,"village","Rucmanci","slovenia"
474995345,46.5075103,16.0058939,"village","Senčak pri Juršincih","slovenia"
474995352,46.5004768,15.9913449,"village","Sakusak","slovenia"
474995353,46.5069508,16.0266292,"hamlet","Mezgovci","slovenia"
474995358,46.5001035,16.0409409,"village","Trnovci","slovenia"
474995363,46.4155246,15.9681915,"village","Strelci","slovenia"
474995367,46.4131661,15.9107544,"village","Spuhlja","slovenia"
474995370,46.457971,15.8889622,"village","Placar","slovenia"
474995923,46.4030577,15.9805662,"village","Zagojici","slovenia"
474995928,46.404753,15.971234,"village","Sobetinci","slovenia"
474995933,46.405811,15.9557837,"village","Prvenci","slovenia"
474997429,46.2133457,15.7451183,"village","Strmec Humski","slovenia"
474997437,46.2144997,15.7791096,"village","Trlično","slovenia"
474997444,46.224849,15.772058,"hamlet","Log","slovenia"
475000399,46.2574071,15.3896715,"village","Trnovec pri Dramljah","slovenia"
475012240,46.2887318,15.7594674,"village","Nadole","slovenia"
475012241,46.3233223,15.7610908,"village","Naraplje","slovenia"
475012772,46.3947708,15.9298496,"village","Markovci","slovenia"
475012773,46.313131,15.7678915,"hamlet","Planjsko","slovenia"
475012882,46.298121,15.9013734,"village","Ložina","slovenia"
475018540,46.3294406,15.7251912,"village","Preša","slovenia"
475028476,46.3395534,15.745577,"village","Stanecka vas","slovenia"
475028485,46.333848,15.7436815,"village","Skrblje","slovenia"
475028489,46.341245,15.7536805,"village","Stogovci","slovenia"
475028493,46.342083,15.7676669,"village","Slape","slovenia"
475028505,46.3082543,15.7680905,"village","Sitež","slovenia"
475030189,46.3996284,15.9148785,"village","Zabovci","slovenia"
475065211,45.7073299,13.8684576,"town","Sežana","slovenia"
475542659,45.8431632,13.5832629,"village","Nova vas","slovenia"
475733033,45.7752745,13.5911183,NA,"Punta d. Cava del Villaggio","slovenia"
477499464,46.3565327,15.6900125,"village","Sestrže","slovenia"
478481232,46.1824426,14.9570697,"village","Razbor pri Čemšeniku","slovenia"
478481234,46.1800361,14.9320928,"village","Dobrljevo","slovenia"
478481235,46.1426818,14.9610048,"village","Loke pri Zagorju","slovenia"
479267250,45.8466286,13.961222,"town","Vipava","slovenia"
480946935,46.1876236,14.9080854,"village","Šentgotard","slovenia"
480949755,46.1882207,14.8861224,"village","Trojane","slovenia"
484208138,46.1106164,14.934807,"village","Šentlambert","slovenia"
484208142,46.1273862,14.9685423,"village","Čolnišče","slovenia"
484208143,46.1200874,14.9018904,"village","Rovišče","slovenia"
484208144,46.1042477,14.9073006,"village","Tirna","slovenia"
484208754,46.1745448,15.0484153,"village","Gabrsko","slovenia"
484922963,46.4972329,13.7037533,"locality","Valico di Fusine","slovenia"
485350155,45.6150172,13.8841242,"hamlet","Bottazzo / Botač","slovenia"
486257442,45.9835309,14.2283585,"village","Mizni Dol","slovenia"
487067101,45.8329998,13.6178914,"village","Korita na Krasu","slovenia"
487067102,45.8220951,13.6175962,"village","Sela na Krasu","slovenia"
490083907,46.1799281,14.8983296,"hamlet","Polšina","slovenia"
490083911,46.1811346,14.8784795,"village","Zavrh pri Trojanah","slovenia"
490090039,46.1861481,14.8930553,"hamlet","V Zideh","slovenia"
490090044,46.1842852,14.9068989,"village","Hrastnik pri Trojanah","slovenia"
491246668,46.166258,14.9127903,"village","Orehovica","slovenia"
492031405,45.9810776,13.6069616,"hamlet","Lenzuolo Bianco","slovenia"
492031444,45.9800923,13.6327668,"hamlet","Villa Vasi","slovenia"
492031445,45.9676926,13.5770637,"hamlet","Valerisce / Valerišče","slovenia"
492042728,45.9738361,13.5154336,"hamlet","Zegla / Ceglo","slovenia"
492051607,46.0334489,13.5051088,"hamlet","Località Scriò","slovenia"
492051611,46.042521,13.5009944,"hamlet","Località Restocina","slovenia"
492056857,46.1690281,14.8726215,"village","Kolovrat","slovenia"
492056858,46.1526406,14.8944676,"village","Briše","slovenia"
492056859,46.1469959,14.9065281,"hamlet","Razpotje","slovenia"
492059978,45.9154816,13.6109402,"hamlet","Case dell'Eremita","slovenia"
492195737,46.1522076,13.6439596,"hamlet","Malinsche","slovenia"
493609396,45.8728323,13.9495928,"village","Budanje","slovenia"
493609400,45.8645792,13.9393897,"hamlet","Log","slovenia"
493609407,45.8624984,13.9473857,"village","Duplje","slovenia"
493609419,45.864419,13.9616702,"village","Vrhpolje","slovenia"
493628638,45.7740386,13.9613763,"village","Vrabče","slovenia"
493701145,46.1418653,15.1061775,"village","Brnica","slovenia"
493718024,45.8635412,15.2239467,"village","Šmarješke Toplice","slovenia"
494404199,45.6978065,13.8285354,"hamlet","Fernetti / Fernetiči","slovenia"
495358283,45.8356565,13.9639344,"village","Gradišče pri Vipavi","slovenia"
495358314,45.8550821,13.9523301,"village","Zemono","slovenia"
497315091,46.201903,15.0689827,"village","Marija Reka","slovenia"
499102918,46.1469703,14.8804064,"village","Mlinše","slovenia"
499102922,46.1371553,14.8425944,"village","Kandrše","slovenia"
499427702,46.147679,14.8093822,"village","Peče","slovenia"
499427704,46.1441858,14.8323286,"village","Križate","slovenia"
499441529,46.1371331,14.7182142,"village","Krašce","slovenia"
500362822,46.109518,14.7442243,"hamlet","Katarija","slovenia"
500362826,46.1256294,14.7428649,"village","Češnjice pri Moravčah","slovenia"
501548270,46.1249494,14.7090496,"village","Vrhpolje","slovenia"
501548271,46.1296073,14.7207434,"village","Spodnji Tuštanj","slovenia"
501548272,46.1360368,14.7044453,"hamlet","Dvorje","slovenia"
501548273,46.1291981,14.6979321,"hamlet","Stegne","slovenia"
501548274,46.1345931,14.6938314,"hamlet","Selo pri Moravčah","slovenia"
503637486,46.1354835,15.0204017,"village","Ravenska vas","slovenia"
503680111,46.1517956,15.0802041,"village","Studence","slovenia"
503680201,46.1438463,15.0713207,"village","Plesko","slovenia"
503680202,46.1402831,15.0745797,"village","Prapretno pri Hrastniku","slovenia"
504460917,46.2557189,13.4778511,"hamlet","Borjana","slovenia"
504461100,46.2541525,13.5059125,"hamlet","Potoki","slovenia"
504490558,46.0411219,13.5895793,"village","Plave","slovenia"
504490565,46.0519044,13.6154772,"village","Deskle","slovenia"
504490568,46.0572108,13.6282212,"hamlet","Rodež","slovenia"
504490573,46.1018497,13.6476385,"village","Ajba","slovenia"
504490577,46.1157384,13.6872903,"village","Doblar","slovenia"
504490581,46.1627324,13.7097085,"hamlet","Čiginj","slovenia"
504490592,46.2329582,13.5910967,"village","Idrsko","slovenia"
504490597,46.2369389,13.5856058,"village","Mlinsko","slovenia"
504490601,46.1361988,13.7186301,"village","Podsela","slovenia"
505139382,46.4810847,15.7032964,"village","Dobrovce","slovenia"
505139393,46.4866626,15.693617,"village","Skoke","slovenia"
505148294,46.4994856,15.678947,"village","Rogoza","slovenia"
506076853,46.1600246,14.918783,"village","Podlipovica","slovenia"
506302447,46.2156323,13.4148961,"hamlet","Robidišče","slovenia"
506722910,45.8210168,13.5820639,"village","Jamiano / Jamlje","slovenia"
506729977,45.8561165,13.5680144,"hamlet","Palchisce / Palkišče","slovenia"
508049752,45.8558003,13.8596802,"village","Vrtovče","slovenia"
508049753,45.8493169,13.8500853,"village","Šmarje","slovenia"
508049754,45.8167424,13.8885546,"village","Kodreti","slovenia"
508049755,45.820736,13.8862121,"village","Dolanci","slovenia"
508049756,45.8141351,13.9048207,"village","Trebižani","slovenia"
508049757,45.8779467,13.9225264,"village","Kožmani","slovenia"
508049758,45.8642012,13.9026129,"village","Dolenje","slovenia"
508049759,45.8569188,13.9090414,"village","Planina","slovenia"
508049760,45.8386062,13.8866216,"village","Gaberje","slovenia"
508049761,45.8676043,13.8512952,"village","Velike Žablje","slovenia"
508049762,45.8063327,13.9496746,"village","Podraga","slovenia"
508049763,45.8396699,13.9332471,"village","Slap","slovenia"
508049764,45.8296441,13.9378901,"village","Lože","slovenia"
508049765,45.8766959,13.9359384,"village","Dolga Poljana","slovenia"
508049766,45.8795003,13.9192648,"village","Žapuže","slovenia"
511978037,45.8281841,13.6677958,"village","Vojščica","slovenia"
513472666,43.9394173,15.4397153,NA,"Trajektna luka Biograd na moru","slovenia"
513655717,41.0763154,29.0445512,NA,"Bebek İskelesi","slovenia"
513655728,41.0667867,29.0434208,NA,"Arnavutköy İskelesi","slovenia"
514604536,45.9849971,13.5856898,"hamlet","Sovenza / Sovenca","slovenia"
516365357,45.6057331,13.7191429,NA,"Punta Sottile","slovenia"
516378515,45.9601367,15.0393338,"hamlet","Migolica","slovenia"
516378516,45.9651636,15.0339001,"hamlet","Sajenice","slovenia"
516378517,45.9735346,15.0283607,"hamlet","Selo pri Mirni","slovenia"
516378518,45.9823913,15.0264569,"hamlet","Pečice","slovenia"
516378519,45.9791024,15.0192385,"hamlet","Brglez","slovenia"
516378520,45.9919889,15.0185648,"hamlet","Lukovec","slovenia"
516378521,45.9914303,15.0094288,"hamlet","Tihaboj","slovenia"
516378522,46.0008016,14.986868,"village","Gabrovka","slovenia"
516378523,46.0105816,14.994854,"hamlet","Brezovo","slovenia"
516378524,46.0244504,14.9962347,"hamlet","Bistrica","slovenia"
516378525,46.0285756,15.0194135,"village","Dole pri Litiji","slovenia"
516378526,46.0337762,15.0222263,"hamlet","Kal pri Dolah","slovenia"
516378527,46.0335927,15.0306082,"hamlet","Berinjek","slovenia"
516378528,46.0390626,15.011359,"village","Jelenska Reber","slovenia"
516378530,46.0482942,15.0337018,"hamlet","Zagozd","slovenia"
516378532,46.0469912,15.0127604,"village","Zavrh","slovenia"
516378534,46.0428986,15.0038233,"village","Spodnje Jelenje","slovenia"
516378535,46.048753,14.9951506,"village","Gorenje Jelenje","slovenia"
516378556,46.0548872,15.007168,"village","Osredek","slovenia"
517267655,46.206772,14.5459496,"village","Gmajnica","slovenia"
517267656,46.199673,14.5650957,"village","Križ","slovenia"
519135619,45.8745082,13.9889881,"village","Sanabor","slovenia"
520006299,46.0430114,14.9629727,"village","Velika Preska","slovenia"
520572021,46.1041834,14.9439085,"village","Špital","slovenia"
520602580,46.108549,14.9565175,"village","Požarje","slovenia"
520605583,46.1069942,14.9378597,"village","Jarše","slovenia"
520618992,46.0380717,14.8928512,"village","Cerovica","slovenia"
520620620,46.0306237,14.9422624,"village","Ljubež v Lazih","slovenia"
520624198,46.0641208,15.0597916,"village","Sopota","slovenia"
520624201,46.0634201,15.1247586,"village","Jagnjenica","slovenia"
520627557,46.0780545,14.9397172,"village","Tepe","slovenia"
521112057,46.0841468,14.8918128,"village","Spodnji Log","slovenia"
521678602,46.186856,14.9404251,"hamlet","Prvine","slovenia"
521680819,46.1905601,14.9161881,"hamlet","Blodnik","slovenia"
521682779,46.1789046,14.9243794,"village","Brezje","slovenia"
522315229,46.1409442,15.141399,"village","Marno","slovenia"
522315230,46.1431852,15.1571811,"village","Brezno","slovenia"
522315244,46.1124185,15.1251007,"village","Šavna Peč","slovenia"
522315245,46.1629205,15.084356,"village","Boben","slovenia"
522571087,46.1234082,15.1959474,"village","Rimske Toplice","slovenia"
522571091,46.0855476,15.171939,"village","Zidani Most","slovenia"
522571092,46.1083889,15.2229317,"village","Gračnica","slovenia"
525359391,46.1008275,15.145185,"village","Suhadol","slovenia"
526067748,46.0541723,15.1923951,"village","Hotemež","slovenia"
526067754,45.9592977,15.195864,"village","Tržišče","slovenia"
526103054,45.9091138,15.248205,"village","Zbure","slovenia"
526103055,45.907782,15.2906185,"village","Škocjan","slovenia"
526108305,45.9246931,15.1478606,"village","Gorenji Mokronog","slovenia"
526108306,45.9172621,15.1732559,"village","Drečji Vrh","slovenia"
527398317,46.0643188,14.8523579,"village","Breg pri Litiji","slovenia"
527398320,46.0625308,14.8568902,"village","Tenetiše","slovenia"
529004249,45.8217343,13.9249194,"village","Goče","slovenia"
529004259,45.8312525,13.9077395,"village","Erzelj","slovenia"
529132238,45.8378391,15.6877592,"village","Bregana","slovenia"
529230759,45.8297112,15.6876512,"village","Velika Jazbina","slovenia"
529230764,45.8354989,15.6849799,"village","Podvrh","slovenia"
529232339,45.8249447,15.6482592,"village","Grdanjci","slovenia"
529476284,46.0886569,14.9655269,"village","Ravne","slovenia"
529602720,46.163228,14.673391,"village","Šentvid pri Lukovici","slovenia"
529602721,46.1743054,14.675149,"village","Rafolče","slovenia"
529602722,46.1761544,14.6572292,"hamlet","Dolenje","slovenia"
529602723,46.1812505,14.6574569,"hamlet","Zagorica pri Rovah","slovenia"
529602724,46.1810929,14.6492622,"hamlet","Žiče","slovenia"
529963096,46.1761231,14.8023885,"village","Blagovica","slovenia"
529963099,46.1681982,14.8333,"village","Borje pri Mlinšah","slovenia"
529963100,46.1600849,14.8472548,"village","Medija","slovenia"
530809839,46.1709879,14.8064511,"locality","Golčaj","slovenia"
534055706,46.1362853,14.7860105,"village","Ples","slovenia"
534055711,46.1375951,14.7545918,"village","Zalog pri Moravčah","slovenia"
534055712,46.1494743,14.7999592,"village","Zgornje Koseze","slovenia"
534055714,46.1460305,14.7800341,"village","Mošenik","slovenia"
534110628,43.5014144,16.4396602,NA,"27","slovenia"
534110630,43.5025678,16.4416789,NA,"20","slovenia"
534110633,43.5051306,16.4415838,NA,"10","slovenia"
534429242,46.4537503,15.7334922,"village","Marjeta na Dravskem polju","slovenia"
534429243,46.4508662,15.7450319,"village","Trniče","slovenia"
534838001,46.0725504,14.9950273,"hamlet","Višje","slovenia"
534846317,46.0059052,13.4727762,"isolated_dwelling","Località Sant'Elena","slovenia"
534966651,42.0966584,19.0884996,NA,"Port of Bar - Terminal","slovenia"
537731980,46.2360931,15.1087364,"village","Sveti Lovrenc","slovenia"
537731982,46.238423,15.1230447,"village","Šešče pri Preboldu","slovenia"
537733528,46.2471353,15.0947316,"village","Latkova vas","slovenia"
537766967,46.2332247,15.0146107,"village","Tabor","slovenia"
537766971,46.2392048,15.0217125,"village","Ojstriška vas","slovenia"
537766972,46.2483873,14.9807998,"village","Čeplje","slovenia"
537766973,46.241969,15.0554139,"village","Grajska vas","slovenia"
537766975,46.2536185,15.0437898,"village","Gomilsko","slovenia"
537766976,46.2521239,15.0754392,"village","Šentrupert","slovenia"
538191046,46.1649092,14.7021784,"hamlet","Gradišče","slovenia"
538958761,46.1675866,14.944338,"village","Zabreznik","slovenia"
538959993,46.1977332,14.943767,"hamlet","Zaplanina","slovenia"
540257119,46.1193789,15.1091431,"village","Krnice","slovenia"
540324734,45.6437159,14.1955662,"village","Narin","slovenia"
540337554,46.1326402,15.2017725,"village","Strensko","slovenia"
540337555,46.1415239,15.1974774,"village","Sevce","slovenia"
540337557,46.1473802,15.2037287,"village","Udmat","slovenia"
540337560,46.1428062,15.2113087,"village","Modrič","slovenia"
540337563,46.1454255,15.243685,"village","Marija Gradec","slovenia"
540596010,45.8280872,14.6055942,"village","Podsmreka pri Velikih Laščah","slovenia"
540596016,45.8313357,14.6032631,"village","Brankovo","slovenia"
540596019,45.8317295,14.6107272,"village","Ulaka","slovenia"
540596025,45.8179832,14.6197726,"village","Velika Slevica","slovenia"
540596044,45.8360429,14.6128975,"village","Podulaka","slovenia"
540596046,45.8386096,14.6201262,"village","Prhajevo","slovenia"
540596047,45.8420005,14.6258977,"village","Pušče","slovenia"
540739774,46.1285315,14.9772581,"village","Vrh","slovenia"
544456516,46.2279699,14.9428702,"village","Ločica pri Vranskem","slovenia"
544456517,46.2074493,14.9045325,"hamlet","Zajasovnik","slovenia"
544456518,46.2030439,14.9033752,"village","Jelševica","slovenia"
544456520,46.2155584,14.88587,"village","Motnik","slovenia"
544833537,45.9533235,14.8386515,"village","Šentvid pri Stični","slovenia"
544833540,45.9570123,14.8078417,"village","Stična","slovenia"
544833543,45.9646353,14.8143183,"village","Mekinje nad Stično","slovenia"
544833545,45.9753747,14.8853495,"village","Radanja vas","slovenia"
544833548,45.9888474,14.8766733,"hamlet","Sobrače","slovenia"
548888224,46.1163571,14.6698853,"hamlet","Vinje","slovenia"
548922159,46.1173589,15.044747,"village","Škofja Riža","slovenia"
548922162,46.1049986,15.0307856,"village","Završje","slovenia"
549722381,45.727346,14.0234318,"hamlet","Potoce","slovenia"
549726255,45.7159132,13.9472972,"village","Brestovica pri Povirju","slovenia"
549992144,46.094298,15.0209756,"hamlet","Laze","slovenia"
549992294,46.0949475,15.041618,"hamlet","Kozlova Gora","slovenia"
549992295,46.1050553,15.0392365,"hamlet","Smodiš","slovenia"
549992298,46.1022612,15.0369564,"hamlet","Blaznik","slovenia"
554060082,46.1075322,13.6266088,"hamlet","Gorenje Nekovo","slovenia"
554060939,46.122749,13.6298167,"isolated_dwelling","Močila","slovenia"
554062642,46.0955848,13.6194419,"village","Čolnica","slovenia"
554080188,46.0737963,13.5601329,"hamlet","Zarščina","slovenia"
554966040,46.0924957,14.9752069,"hamlet","Smeškovec","slovenia"
556675509,46.0881072,14.9780595,"hamlet","Vodenik","slovenia"
556675515,46.0984823,14.9739808,"hamlet","Brezovar","slovenia"
556675518,46.0994556,14.9737661,"hamlet","Beber","slovenia"
556675522,46.1067032,14.9761381,"hamlet","Dolanec","slovenia"
556675524,46.1045622,14.9814281,"hamlet","Spodnji Sivec","slovenia"
556675527,46.1021921,14.9840207,"hamlet","Zgornji Sivec","slovenia"
558553271,46.3425011,13.6682924,"village","Soča","slovenia"
558571187,46.2570074,13.6136555,"village","Drežnica","slovenia"
558640586,46.572473,14.8767627,"village","Šentanel","slovenia"
559254474,46.1510853,14.9484982,"hamlet","Spodnje Izlake","slovenia"
559254475,46.1553922,14.9448073,"hamlet","Zgornje Izlake","slovenia"
559254476,46.1528386,14.9518129,"hamlet","Štrban","slovenia"
559254478,46.1525143,14.9597446,"hamlet","Petelink","slovenia"
561132102,46.2838065,14.8894616,"village","Šmartno ob Dreti","slovenia"
561271241,46.1236815,14.9846074,"hamlet","Bebar","slovenia"
561435165,46.801894,16.0919216,"village","Grad","slovenia"
564122417,46.1589295,15.1873801,"village","Huda Jama","slovenia"
564122505,46.1700206,15.1598253,"village","Zgornja Rečica","slovenia"
564895666,45.5482203,14.0098957,"village","Skadanščina","slovenia"
566195412,45.6251654,13.9809288,"village","Rodik","slovenia"
566195640,45.6136682,13.9876604,"hamlet","Slope","slovenia"
567336337,46.1531057,13.7410956,"village","Most na Soči","slovenia"
567336806,46.0932003,13.8389364,"village","Dolenja Trebuša","slovenia"
567336807,46.1017587,13.948908,"village","Straža","slovenia"
568485779,45.7297811,13.8079883,"hamlet","Voglje","slovenia"
568513926,46.1678145,15.0661317,"village","Ostenk","slovenia"
568513927,46.1857154,15.0331111,"village","Knezdol","slovenia"
568521036,46.1709423,15.0858344,"hamlet","Čeče","slovenia"
568525076,46.1603896,15.037041,"village","Klek","slovenia"
568527575,45.6283562,14.019689,"hamlet","Podgrad pri Vremah","slovenia"
568565177,45.6507007,13.9839672,"village","Dane pri Divači","slovenia"
569269536,46.1731388,15.1091577,"hamlet","Kal","slovenia"
569705668,46.1224642,15.0009309,"hamlet","Konec","slovenia"
569705669,46.1216465,15.0009565,"hamlet","Hrastel","slovenia"
569705670,46.1215046,14.99983,"hamlet","Dolanc","slovenia"
569705671,46.1265811,15.0056717,"hamlet","Javor","slovenia"
569705672,46.1244445,15.005916,"hamlet","Kos","slovenia"
570103849,46.036696,14.0876521,"hamlet","Osojnica","slovenia"
570103858,46.021765,14.0306053,"village","Mokraška vas","slovenia"
570103883,46.0191799,14.0273835,"village","Marof","slovenia"
570103904,46.0788673,13.9879146,"village","Otalež","slovenia"
570103936,46.0248898,14.0715681,"village","Govejk","slovenia"
571653179,46.4929652,13.8222677,"locality","Jurež","slovenia"
574444935,45.5999021,13.723164,"village","Lazzaretto / Lazaret","slovenia"
574444957,45.5984451,13.7421114,"village","Chiampore / Čampore","slovenia"
574444974,45.5872554,13.776852,"village","Santa Barbara / Korošci","slovenia"
574444994,45.5897015,13.8130262,"hamlet","Noghere / Oreh","slovenia"
574848479,45.5739595,14.0049082,"hamlet","Povžane","slovenia"
574855635,45.5536414,13.9769138,"locality","Jegno","slovenia"
574899620,46.1811128,15.0663057,"hamlet","Zgornje Svine","slovenia"
580712209,46.1373157,14.8503233,"hamlet","Dobrlevo","slovenia"
580712257,46.1441629,14.8432696,"hamlet","Peške Kandrše","slovenia"
580712260,46.1458323,14.8432982,"village","Dolgo Brdo pri Mlinšah","slovenia"
580713463,46.1403682,14.8517587,"hamlet","Drnovec","slovenia"
582444179,45.8485678,13.7033473,"village","Lipa","slovenia"
582626600,46.1853777,14.9742445,"hamlet","Križe","slovenia"
582626642,46.1847442,14.9899408,"village","Znojile","slovenia"
582626758,46.1875143,14.987763,"hamlet","Drenovec","slovenia"
582970209,45.8160693,13.5923116,"hamlet","Comarie / Komarji","slovenia"
586644780,46.1333003,14.6924416,"hamlet","Dole pod Sveto Trojico","slovenia"
586644787,46.1423469,14.6998637,"hamlet","Imenje","slovenia"
586644801,46.1423005,14.7165648,"hamlet","Dole pri Krašcah","slovenia"
587644224,46.1466976,14.8924052,"hamlet","Ovinkar","slovenia"
587644225,46.1493311,14.8953667,"hamlet","Podosredek","slovenia"
587644227,46.1482743,14.8988097,"hamlet","Osredkar","slovenia"
587756469,46.1704922,14.9958199,"village","Čebine","slovenia"
588937196,46.1904338,15.0060965,"village","Vrhe","slovenia"
588982877,46.1677683,14.9678155,"hamlet","Hribar","slovenia"
588982896,46.1728816,14.9751071,"hamlet","V Loki","slovenia"
588982905,46.1806328,14.992824,"hamlet","Brezovšek","slovenia"
588982911,46.1824832,14.9956756,"hamlet","Plaznik","slovenia"
596072400,46.1745797,14.9546129,"hamlet","Mohonac","slovenia"
596072406,46.1787624,14.9610871,"hamlet","Zaloka","slovenia"
596494684,46.2559767,14.6031319,"village","Zgornje Stranje","slovenia"
596494704,46.2610982,14.6013824,"hamlet","Zagorica","slovenia"
596494713,46.2654895,14.6030785,"village","Stahovica","slovenia"
597442281,46.0716211,14.982784,"hamlet","Sladič","slovenia"
597442282,46.0705983,14.9916614,"hamlet","Gričar","slovenia"
597442283,46.0697918,15.0050178,"hamlet","Špečko","slovenia"
597442284,46.0705371,15.0118642,"hamlet","Tacek","slovenia"
597442285,46.0706027,15.0157239,"hamlet","Lančišar","slovenia"
597442286,46.0769243,14.9945538,"hamlet","Lomšek","slovenia"
597442288,46.0825309,14.9983699,"hamlet","Klenovik","slovenia"
597442289,46.0859103,15.0053308,"hamlet","Dolinšek","slovenia"
597442290,46.0857014,15.0072665,"hamlet","Boriče","slovenia"
597442291,46.0863876,15.0078114,"hamlet","Borišek","slovenia"
597442292,46.0848073,15.014376,"hamlet","V Mlakah","slovenia"
598845272,46.1075812,14.5933854,"village","Dragomelj","slovenia"
598845304,46.0993913,14.6010713,"village","Pšata","slovenia"
599322973,45.6284702,13.9009948,"locality","Krasno polje","slovenia"
599389971,45.8113945,13.6942835,"village","Klanec pri Komnu","slovenia"
599390025,45.8143689,13.6776352,"isolated_dwelling","Majerji","slovenia"
599390026,45.8289338,13.6718845,"locality","Gornja vas","slovenia"
599390050,45.8183333,13.6986055,"village","Zagrajec","slovenia"
599390095,45.8181265,13.709876,"village","Ivanji Grad","slovenia"
599390165,45.7842685,13.718212,"village","Brje pri Komnu","slovenia"
599390390,45.7762413,13.7396693,"village","Tublje pri Komnu","slovenia"
599390398,45.7708881,13.7529291,"village","Veliki Dol","slovenia"
599390403,45.7867613,13.7422657,"hamlet","Kregolišče","slovenia"
599390406,45.7833079,13.7353915,"hamlet","Škofi","slovenia"
599390445,45.7929183,13.7310112,"hamlet","Nadrožica","slovenia"
599390851,45.8183096,13.7297881,"village","Preserje pri Komnu","slovenia"
599390921,45.8248518,13.7316012,"village","Sveto","slovenia"
599673768,46.003513,15.6222367,"village","Pavlova vas","slovenia"
600482885,46.1053253,13.6382692,"hamlet","Dolenje Nekovo","slovenia"
600485731,46.0895522,13.6240454,"hamlet","Ravenca","slovenia"
601401087,46.0833081,13.6303407,"village","Gorenja vas","slovenia"
601406030,46.0774581,13.6630022,"village","Kanalski Vrh","slovenia"
601581618,46.2061821,14.5502496,"village","Gora pri Komendi","slovenia"
601581620,46.2112142,14.5495796,"village","Mlaka","slovenia"
601581621,46.2121389,14.5826691,"village","Podgorje","slovenia"
601581660,46.1856275,14.5954537,"village","Nožice","slovenia"
601581686,46.1625428,14.6644837,"village","Prevoje","slovenia"
601581699,46.1578329,14.6707257,"hamlet","Vrba","slovenia"
601581710,46.1932995,14.5939839,"village","Šmarca","slovenia"
601581711,46.1924223,14.6072104,"hamlet","Volčji Potok","slovenia"
601581717,46.2038452,14.5959422,"suburb","Duplica","slovenia"
601582072,46.2131796,14.6500593,"village","Zgornje Palovče","slovenia"
601582142,46.2108457,14.6628806,"village","Spodnje Palovče","slovenia"
601582200,46.2103751,14.6722068,"village","Vranja peč","slovenia"
601582225,46.151534,14.6784797,"hamlet","Prevalje","slovenia"
601582228,46.1517136,14.6890119,"hamlet","Spodnje Koseze","slovenia"
601582238,46.1547994,14.6782466,"hamlet","Imovica","slovenia"
601582283,46.1697683,14.6913078,"village","Lukovica","slovenia"
601582384,46.1838368,14.6951122,"hamlet","Čeplje","slovenia"
601582428,46.1967774,14.6952502,"village","Preserje","slovenia"
601582465,46.2035939,14.6912662,"village","Velika Lašna","slovenia"
601582490,46.1921363,14.7023287,"village","Obrše","slovenia"
601582496,46.1906868,14.71174,"village","Trnovče","slovenia"
601582506,46.1927672,14.7176777,"village","Podgora pri Zlatem Polju","slovenia"
601582508,46.1969373,14.7167769,"village","Mala Lašna","slovenia"
601582524,46.2195135,14.698582,"village","Potok","slovenia"
601582554,46.1958424,14.7251055,"village","Zlato Polje","slovenia"
601582556,46.1954205,14.7330412,"village","Brezovica pri Zlatem Polju","slovenia"
601582583,46.2051074,14.7458174,"village","Pšajnovica","slovenia"
601582617,46.2169818,14.7222492,"village","Buč","slovenia"
601582618,46.215622,14.7334012,"village","Šmartno v Tuhinju","slovenia"
601582619,46.2372175,14.5787801,"village","Tunjice","slovenia"
601582620,46.2361801,14.5812463,"hamlet","Tunjiška Mlaka","slovenia"
601582622,46.2397818,14.5830193,"hamlet","Laniše","slovenia"
